[{"id":106078,"name":"Cafe at the Opera","address":"301 Van Ness Avenue","city":"San Francisco","state":"CA","area":"San Francisco Bay Area","postal_code":"94102","country":"US","phone":"4158618150x","lat":37.778587,"lng":-122.420875,"price":3,"reserve_url":"http://www.opentable.com/single.aspx?rid=106078","mobile_reserve_url":"http://mobile.opentable.com/opentable/?restId=106078","image_url":"https://www.opentable.com/img/restimages/106078.jpg","ranking":2,"crimes_nearby":405,"crime_ranking":5},{"id":27,"name":"Jardiniere","address":"300 Grove St.","city":"San Francisco","state":"CA","area":"San Francisco Bay Area","postal_code":"94102","country":"US","phone":"4158615555x","lat":37.778184,"lng":-122.421775,"price":4,"reserve_url":"http://www.opentable.com/single.aspx?rid=27","mobile_reserve_url":"http://mobile.opentable.com/opentable/?restId=27","image_url":"https://www.opentable.com/img/restimages/27.jpg","ranking":5,"crimes_nearby":393,"crime_ranking":5},{"id":105217,"name":"South at SF Jazz","address":"201 Franklin Street","city":"San Francisco","state":"CA","area":"San Francisco Bay Area","postal_code":"94102","country":"US","phone":"4155393905x","lat":37.776166,"lng":-122.421185,"price":2,"reserve_url":"http://www.opentable.com/single.aspx?rid=105217","mobile_reserve_url":"http://mobile.opentable.com/opentable/?restId=105217","image_url":"https://www.opentable.com/img/restimages/105217.jpg","ranking":2,"crimes_nearby":386,"crime_ranking":5},{"id":112807,"name":"mrCrave / bistro + cafe","address":"655 Ellis Street","city":"San Francisco","state":"CA","area":"San Francisco Bay Area","postal_code":"94109","country":"US","phone":"4153218899x","lat":37.784045,"lng":-122.416799,"price":2,"reserve_url":"http://www.opentable.com/single.aspx?rid=112807","mobile_reserve_url":"http://mobile.opentable.com/opentable/?restId=112807","image_url":"https://www.opentable.com/img/restimages/112807.jpg","ranking":5,"crimes_nearby":376,"crime_ranking":5},{"id":2870,"name":"Urban Tavern","address":"Hilton San Francisco","city":"San Francisco","state":"CA","area":"San Francisco Bay Area","postal_code":"94102","country":"US","phone":"4159234400","lat":37.785789,"lng":-122.410031,"price":2,"reserve_url":"http://www.opentable.com/single.aspx?rid=2870","mobile_reserve_url":"http://mobile.opentable.com/opentable/?restId=2870","image_url":"https://www.opentable.com/img/restimages/2870.jpg","ranking":2,"crimes_nearby":368,"crime_ranking":4},{"id":118477,"name":"Marrakech Moroccan Restaurant","address":"419 O'Farrell Street","city":"San Francisco","state":"CA","area":"San Francisco Bay Area","postal_code":"94102","country":"US","phone":"4157766717","lat":37.78588,"lng":-122.411829,"price":2,"reserve_url":"http://www.opentable.com/single.aspx?rid=118477","mobile_reserve_url":"http://mobile.opentable.com/opentable/?restId=118477","image_url":"https://www.opentable.com/img/restimages/118477.jpg","ranking":2,"crimes_nearby":363,"crime_ranking":4},{"id":31408,"name":"cityhouse Restaurant - Parc 55 Hotel","address":"55 Cyril Magnin Street","city":"San Francisco","state":"CA","area":"San Francisco Bay Area","postal_code":"94102","country":"US","phone":"4154036601x","lat":37.784871,"lng":-122.408991,"price":3,"reserve_url":"http://www.opentable.com/single.aspx?rid=31408","mobile_reserve_url":"http://mobile.opentable.com/opentable/?restId=31408","image_url":"https://www.opentable.com/img/restimages/31408.jpg","ranking":5,"crimes_nearby":362,"crime_ranking":4},{"id":2340,"name":"Hana Zen Yakitori & Sushi Bar","address":"115 Cyril Magnin","city":"San Francisco","state":"CA","area":"San Francisco Bay Area","postal_code":"94102","country":"US","phone":"4154212101","lat":37.785558,"lng":-122.408716,"price":3,"reserve_url":"http://www.opentable.com/single.aspx?rid=2340","mobile_reserve_url":"http://mobile.opentable.com/opentable/?restId=2340","image_url":"https://www.opentable.com/img/restimages/2340.jpg","ranking":1,"crimes_nearby":359,"crime_ranking":4},{"id":61030,"name":"Borobudur","address":"700 Post St.","city":"San Francisco","state":"CA","area":"San Francisco Bay Area","postal_code":"94109","country":"US","phone":"4157751512","lat":37.787729,"lng":-122.413532,"price":2,"reserve_url":"http://www.opentable.com/single.aspx?rid=61030","mobile_reserve_url":"http://mobile.opentable.com/opentable/?restId=61030","image_url":"https://www.opentable.com/img/restimages/61030.jpg","ranking":4,"crimes_nearby":358,"crime_ranking":4},{"id":28432,"name":"Infusion Lounge","address":"124 Ellis Street","city":"San Francisco","state":"CA","area":"San Francisco Bay Area","postal_code":"94102","country":"US","phone":"4154218700","lat":37.785486,"lng":-122.408196,"price":2,"reserve_url":"http://www.opentable.com/single.aspx?rid=28432","mobile_reserve_url":"http://mobile.opentable.com/opentable/?restId=28432","image_url":"https://www.opentable.com/img/restimages/28432.jpg","ranking":1,"crimes_nearby":356,"crime_ranking":4},{"id":109843,"name":"The Cavalier","address":"360 Jessie Street","city":"San Francisco","state":"CA","area":"San Francisco Bay Area","postal_code":"94103","country":"US","phone":"4153216000x","lat":37.783321,"lng":-122.406885,"price":3,"reserve_url":"http://www.opentable.com/single.aspx?rid=109843","mobile_reserve_url":"http://mobile.opentable.com/opentable/?restId=109843","image_url":"https://www.opentable.com/img/restimages/109843.jpg","ranking":1,"crimes_nearby":356,"crime_ranking":4},{"id":7405,"name":"Lark Creek Steak","address":"845 Market Street - 4th Floor","city":"San Francisco","state":"CA","area":"San Francisco Bay Area","postal_code":"94103","country":"US","phone":"4155934100x","lat":37.784909,"lng":-122.406922,"price":3,"reserve_url":"http://www.opentable.com/single.aspx?rid=7405","mobile_reserve_url":"http://mobile.opentable.com/opentable/?restId=7405","image_url":"https://www.opentable.com/img/restimages/7405.jpg","ranking":4,"crimes_nearby":355,"crime_ranking":4},{"id":74242,"name":"SOMA Restaurant & Bar","address":"85 Fifth Street","city":"San Francisco","state":"CA","area":"San Francisco Bay Area","postal_code":"94103","country":"US","phone":"4157798500","lat":37.782746,"lng":-122.40647,"price":2,"reserve_url":"http://www.opentable.com/single.aspx?rid=74242","mobile_reserve_url":"http://mobile.opentable.com/opentable/?restId=74242","image_url":"https://www.opentable.com/img/restimages/74242.jpg","ranking":2,"crimes_nearby":353,"crime_ranking":4},{"id":4485,"name":"Zuni Cafe","address":"1658 Market Street","city":"San Francisco","state":"CA","area":"San Francisco Bay Area","postal_code":"94102","country":"US","phone":"4155522522","lat":37.773432,"lng":-122.421555,"price":3,"reserve_url":"http://www.opentable.com/single.aspx?rid=4485","mobile_reserve_url":"http://mobile.opentable.com/opentable/?restId=4485","image_url":"https://www.opentable.com/img/restimages/4485.jpg","ranking":4,"crimes_nearby":351,"crime_ranking":4},{"id":147469,"name":"Monsieur Benjamin","address":"451 Gough Street","city":"San Francisco","state":"CA","area":"San Francisco Bay Area","postal_code":"94102","country":"US","phone":"4154032233","lat":37.777367,"lng":-122.423098,"price":2,"reserve_url":"http://www.opentable.com/single.aspx?rid=147469","mobile_reserve_url":"http://mobile.opentable.com/opentable/?restId=147469","image_url":"https://www.opentable.com/img/restimages/147469.jpg","ranking":5,"crimes_nearby":349,"crime_ranking":4},{"id":105223,"name":"Caffe Delle Stelle","address":"395 Hayes Street","city":"San Francisco","state":"CA","area":"San Francisco Bay Area","postal_code":"94102","country":"US","phone":"4152521110","lat":37.776823,"lng":-122.422777,"price":2,"reserve_url":"http://www.opentable.com/single.aspx?rid=105223","mobile_reserve_url":"http://mobile.opentable.com/opentable/?restId=105223","image_url":"https://www.opentable.com/img/restimages/105223.jpg","ranking":5,"crimes_nearby":347,"crime_ranking":4},{"id":52201,"name":"Fondue Cowboy","address":"1052 Folsom Street","city":"San Francisco","state":"CA","area":"San Francisco Bay Area","postal_code":"94103","country":"US","phone":"4154315100","lat":37.777522,"lng":-122.406893,"price":2,"reserve_url":"http://www.opentable.com/single.aspx?rid=52201","mobile_reserve_url":"http://mobile.opentable.com/opentable/?restId=52201","image_url":"https://www.opentable.com/img/restimages/52201.jpg","ranking":2,"crimes_nearby":344,"crime_ranking":4},{"id":3009,"name":"BOURBON STEAK San Francisco","address":"335 Powell St.","city":"San Francisco","state":"CA","area":"San Francisco Bay Area","postal_code":"94102","country":"US","phone":"4153973003x","lat":37.787978,"lng":-122.408365,"price":3,"reserve_url":"http://www.opentable.com/single.aspx?rid=3009","mobile_reserve_url":"http://mobile.opentable.com/opentable/?restId=3009","image_url":"https://www.opentable.com/img/restimages/3009.jpg","ranking":2,"crimes_nearby":343,"crime_ranking":4},{"id":24886,"name":"Amber India","address":"25 Yerba Buena Lane","city":"San Francisco","state":"CA","area":"San Francisco Bay Area","postal_code":"94103","country":"US","phone":"4157770500","lat":37.78553,"lng":-122.404026,"price":2,"reserve_url":"http://www.opentable.com/single.aspx?rid=24886","mobile_reserve_url":"http://mobile.opentable.com/opentable/?restId=24886","image_url":"https://www.opentable.com/img/restimages/24886.jpg","ranking":5,"crimes_nearby":341,"crime_ranking":4},{"id":27691,"name":"Tropisueño","address":"75 Yerba Buena Lane","city":"San Francisco","state":"CA","area":"San Francisco Bay Area","postal_code":"94103","country":"US","phone":"4152430299x","lat":37.78547,"lng":-122.40397,"price":2,"reserve_url":"http://www.opentable.com/single.aspx?rid=27691","mobile_reserve_url":"http://mobile.opentable.com/opentable/?restId=27691","image_url":"https://www.opentable.com/img/restimages/27691.jpg","ranking":5,"crimes_nearby":340,"crime_ranking":4},{"id":27466,"name":"Basil Canteen @ 11th Street","address":"1489 Folsom Street","city":"San Francisco","state":"CA","area":"San Francisco Bay Area","postal_code":"94103","country":"US","phone":"415-552-3963","lat":37.771713,"lng":-122.413361,"price":2,"reserve_url":"http://www.opentable.com/single.aspx?rid=27466","mobile_reserve_url":"http://mobile.opentable.com/opentable/?restId=27466","image_url":"https://www.opentable.com/img/restimages/27466.jpg","ranking":2,"crimes_nearby":339,"crime_ranking":4},{"id":88192,"name":"Sanraku Metreon","address":"101 4th Street","city":"San Francisco","state":"CA","area":"San Francisco Bay Area","postal_code":"94103","country":"US","phone":"4153696166","lat":37.783783,"lng":-122.402962,"price":2,"reserve_url":"http://www.opentable.com/single.aspx?rid=88192","mobile_reserve_url":"http://mobile.opentable.com/opentable/?restId=88192","image_url":"https://www.opentable.com/img/restimages/88192.jpg","ranking":1,"crimes_nearby":336,"crime_ranking":4},{"id":114133,"name":"Bergerac","address":"316 11th Street","city":"San Francisco","state":"CA","area":"San Francisco Bay Area","postal_code":"94103","country":"US","phone":"4152559440x","lat":37.771362,"lng":-122.413792,"price":2,"reserve_url":"http://www.opentable.com/single.aspx?rid=114133","mobile_reserve_url":"http://mobile.opentable.com/opentable/?restId=114133","image_url":"https://www.opentable.com/img/restimages/114133.jpg","ranking":2,"crimes_nearby":333,"crime_ranking":4},{"id":159,"name":"Scala's Bistro","address":"432 Powell St.","city":"San Francisco","state":"CA","area":"San Francisco Bay Area","postal_code":"94102","country":"US","phone":"4153958555x","lat":37.788984,"lng":-122.408226,"price":2,"reserve_url":"http://www.opentable.com/single.aspx?rid=159","mobile_reserve_url":"http://mobile.opentable.com/opentable/?restId=159","image_url":"https://www.opentable.com/img/restimages/159.jpg","ranking":1,"crimes_nearby":330,"crime_ranking":4},{"id":116620,"name":"1601 Bar & Kitchen","address":"1601 Howard Street","city":"San Francisco","state":"CA","area":"San Francisco Bay Area","postal_code":"94103","country":"US","phone":"4155521601x","lat":37.771394,"lng":-122.416789,"price":3,"reserve_url":"http://www.opentable.com/single.aspx?rid=116620","mobile_reserve_url":"http://mobile.opentable.com/opentable/?restId=116620","image_url":"https://www.opentable.com/img/restimages/116620.jpg","ranking":2,"crimes_nearby":322,"crime_ranking":4},{"id":129343,"name":"Bitters, Bock & Rye","address":"1117 Polk Street","city":"San Francisco","state":"CA","area":"San Francisco Bay Area","postal_code":"94109","country":"US","phone":"4154404490","lat":37.787154,"lng":-122.420028,"price":2,"reserve_url":"http://www.opentable.com/single.aspx?rid=129343","mobile_reserve_url":"http://mobile.opentable.com/opentable/?restId=129343","image_url":"https://www.opentable.com/img/restimages/129343.jpg","ranking":3,"crimes_nearby":319,"crime_ranking":4},{"id":95704,"name":"Hakkasan San Francisco","address":"One Kearny Street","city":"San Francisco","state":"CA","area":"San Francisco Bay Area","postal_code":"94108","country":"US","phone":"4158298148x","lat":37.787821,"lng":-122.403558,"price":4,"reserve_url":"http://www.opentable.com/single.aspx?rid=95704","mobile_reserve_url":"http://mobile.opentable.com/opentable/?restId=95704","image_url":"https://www.opentable.com/img/restimages/95704.jpg","ranking":4,"crimes_nearby":317,"crime_ranking":4},{"id":103996,"name":"Noir Lounge","address":"581 Hayes Street","city":"San Francisco","state":"CA","area":"San Francisco Bay Area","postal_code":"94102","country":"US","phone":"4154316647","lat":37.776422,"lng":-122.425947,"price":2,"reserve_url":"http://www.opentable.com/single.aspx?rid=103996","mobile_reserve_url":"http://mobile.opentable.com/opentable/?restId=103996","image_url":"https://www.opentable.com/img/restimages/103996.jpg","ranking":2,"crimes_nearby":314,"crime_ranking":4},{"id":101854,"name":"Mazzat","address":"501 Fell Street","city":"San Francisco","state":"CA","area":"San Francisco Bay Area","postal_code":"94102","country":"US","phone":"4155253901x","lat":37.775439,"lng":-122.426211,"price":2,"reserve_url":"http://www.opentable.com/single.aspx?rid=101854","mobile_reserve_url":"http://mobile.opentable.com/opentable/?restId=101854","image_url":"https://www.opentable.com/img/restimages/101854.jpg","ranking":3,"crimes_nearby":311,"crime_ranking":4},{"id":48964,"name":"Zero Zero","address":"826 Folsom Street","city":"San Francisco","state":"CA","area":"San Francisco Bay Area","postal_code":"94107","country":"US","phone":"4153488800","lat":37.781541,"lng":-122.401987,"price":2,"reserve_url":"http://www.opentable.com/single.aspx?rid=48964","mobile_reserve_url":"http://mobile.opentable.com/opentable/?restId=48964","image_url":"https://www.opentable.com/img/restimages/48964.jpg","ranking":3,"crimes_nearby":310,"crime_ranking":4},{"id":5546,"name":"Ame","address":"689 Mission Street","city":"San Francisco","state":"CA","area":"San Francisco Bay Area","postal_code":"94105","country":"US","phone":"4152844040x","lat":37.786449,"lng":-122.401818,"price":4,"reserve_url":"http://www.opentable.com/single.aspx?rid=5546","mobile_reserve_url":"http://mobile.opentable.com/opentable/?restId=5546","image_url":"https://www.opentable.com/img/restimages/5546.jpg","ranking":3,"crimes_nearby":305,"crime_ranking":4},{"id":22633,"name":"Gitane","address":"6 Claude Lane","city":"San Francisco","state":"CA","area":"San Francisco Bay Area","postal_code":"94108","country":"US","phone":"4157886686x","lat":37.789836,"lng":-122.404221,"price":2,"reserve_url":"http://www.opentable.com/single.aspx?rid=22633","mobile_reserve_url":"http://mobile.opentable.com/opentable/?restId=22633","image_url":"https://www.opentable.com/img/restimages/22633.jpg","ranking":1,"crimes_nearby":304,"crime_ranking":4},{"id":2657,"name":"Garden Court","address":"2 New Montgomery St.","city":"San Francisco","state":"CA","area":"San Francisco Bay Area","postal_code":"94105","country":"US","phone":"4155465089x","lat":37.787941,"lng":-122.401934,"price":4,"reserve_url":"http://www.opentable.com/single.aspx?rid=2657","mobile_reserve_url":"http://mobile.opentable.com/opentable/?restId=2657","image_url":"https://www.opentable.com/img/restimages/2657.jpg","ranking":4,"crimes_nearby":302,"crime_ranking":4},{"id":36082,"name":"Jeanne D'Arc - Cornell Hotel De France","address":"715 Bush Street","city":"San Francisco","state":"CA","area":"San Francisco Bay Area","postal_code":"94108","country":"US","phone":"4154213154","lat":37.790097,"lng":-122.409127,"price":3,"reserve_url":"http://www.opentable.com/single.aspx?rid=36082","mobile_reserve_url":"http://mobile.opentable.com/opentable/?restId=36082","image_url":"https://www.opentable.com/img/restimages/36082.jpg","ranking":3,"crimes_nearby":288,"crime_ranking":3},{"id":50962,"name":"Sons & Daughters","address":"708 Bush Street","city":"San Francisco","state":"CA","area":"San Francisco Bay Area","postal_code":"94108","country":"US","phone":"4153918311","lat":37.790138,"lng":-122.40908,"price":4,"reserve_url":"http://www.opentable.com/single.aspx?rid=50962","mobile_reserve_url":"http://mobile.opentable.com/opentable/?restId=50962","image_url":"https://www.opentable.com/img/restimages/50962.jpg","ranking":4,"crimes_nearby":285,"crime_ranking":3},{"id":22585,"name":"Big 4 Restaurant","address":"1075 California Street","city":"San Francisco","state":"CA","area":"San Francisco Bay Area","postal_code":"94108","country":"US","phone":"4157711140x","lat":37.791369,"lng":-122.412049,"price":3,"reserve_url":"http://www.opentable.com/single.aspx?rid=22585","mobile_reserve_url":"http://mobile.opentable.com/opentable/?restId=22585","image_url":"https://www.opentable.com/img/restimages/22585.jpg","ranking":3,"crimes_nearby":282,"crime_ranking":3},{"id":103699,"name":"Osso Steakhouse","address":"1177 California Street","city":"San Francisco","state":"CA","area":"San Francisco Bay Area","postal_code":"94109","country":"US","phone":"4157716776x","lat":37.791536,"lng":-122.41412,"price":3,"reserve_url":"http://www.opentable.com/single.aspx?rid=103699","mobile_reserve_url":"http://mobile.opentable.com/opentable/?restId=103699","image_url":"https://www.opentable.com/img/restimages/103699.jpg","ranking":1,"crimes_nearby":278,"crime_ranking":3},{"id":7983,"name":"Laurel Court Restaurant & Bar - Fairmont San Francisco","address":"950 Mason St","city":"San Francisco","state":"CA","area":"San Francisco Bay Area","postal_code":"94108","country":"US","phone":"4157725260x","lat":37.792427,"lng":-122.410093,"price":3,"reserve_url":"http://www.opentable.com/single.aspx?rid=7983","mobile_reserve_url":"http://mobile.opentable.com/opentable/?restId=7983","image_url":"https://www.opentable.com/img/restimages/7983.jpg","ranking":1,"crimes_nearby":277,"crime_ranking":3},{"id":129346,"name":"Nob Hill Club at the Mark Hopkins","address":"One Nob Hill","city":"San Francisco","state":"CA","area":"San Francisco Bay Area","postal_code":"94108","country":"US","phone":"415-616-6940x","lat":37.791405,"lng":-122.410248,"price":3,"reserve_url":"http://www.opentable.com/single.aspx?rid=129346","mobile_reserve_url":"http://mobile.opentable.com/opentable/?restId=129346","image_url":"https://www.opentable.com/img/restimages/129346.jpg","ranking":1,"crimes_nearby":276,"crime_ranking":3},{"id":45916,"name":"Benu","address":"22 Hawthorne Street","city":"San Francisco","state":"CA","area":"San Francisco Bay Area","postal_code":"94105","country":"US","phone":"4156854860x","lat":37.785402,"lng":-122.399068,"price":4,"reserve_url":"http://www.opentable.com/single.aspx?rid=45916","mobile_reserve_url":"http://mobile.opentable.com/opentable/?restId=45916","image_url":"https://www.opentable.com/img/restimages/45916.jpg","ranking":5,"crimes_nearby":272,"crime_ranking":3},{"id":3494,"name":"Acquerello","address":"1722 Sacramento St.","city":"San Francisco","state":"CA","area":"San Francisco Bay Area","postal_code":"94109","country":"US","phone":"4155675432x","lat":37.79145,"lng":-122.421397,"price":4,"reserve_url":"http://www.opentable.com/single.aspx?rid=3494","mobile_reserve_url":"http://mobile.opentable.com/opentable/?restId=3494","image_url":"https://www.opentable.com/img/restimages/3494.jpg","ranking":5,"crimes_nearby":270,"crime_ranking":3},{"id":78232,"name":"Per Diem","address":"43 Sutter Street","city":"San Francisco","state":"CA","area":"San Francisco Bay Area","postal_code":"94104","country":"US","phone":"4159890300x","lat":37.790151,"lng":-122.401196,"price":2,"reserve_url":"http://www.opentable.com/single.aspx?rid=78232","mobile_reserve_url":"http://mobile.opentable.com/opentable/?restId=78232","image_url":"https://www.opentable.com/img/restimages/78232.jpg","ranking":2,"crimes_nearby":267,"crime_ranking":3},{"id":145399,"name":"Osha Thai 3rd Street","address":"311 Third Street","city":"San Francisco","state":"CA","area":"San Francisco Bay Area","postal_code":"94107","country":"US","phone":"4158966742","lat":37.783652,"lng":-122.398396,"price":2,"reserve_url":"http://www.opentable.com/single.aspx?rid=145399","mobile_reserve_url":"http://mobile.opentable.com/opentable/?restId=145399","image_url":"https://www.opentable.com/img/restimages/145399.jpg","ranking":2,"crimes_nearby":264,"crime_ranking":3},{"id":110689,"name":"Saffron 685 Mediterranean Turkish Cuisine","address":"685 Townsend Street","city":"San Francisco","state":"CA","area":"San Francisco Bay Area","postal_code":"94103","country":"US","phone":"4158632285x","lat":37.770367,"lng":-122.403338,"price":2,"reserve_url":"http://www.opentable.com/single.aspx?rid=110689","mobile_reserve_url":"http://mobile.opentable.com/opentable/?restId=110689","image_url":"https://www.opentable.com/img/restimages/110689.jpg","ranking":4,"crimes_nearby":259,"crime_ranking":3},{"id":21244,"name":"Anchor and Hope","address":"83 Minna Street","city":"San Francisco","state":"CA","area":"San Francisco Bay Area","postal_code":"94105","country":"US","phone":"4155019100","lat":37.787745,"lng":-122.398768,"price":3,"reserve_url":"http://www.opentable.com/single.aspx?rid=21244","mobile_reserve_url":"http://mobile.opentable.com/opentable/?restId=21244","image_url":"https://www.opentable.com/img/restimages/21244.jpg","ranking":4,"crimes_nearby":258,"crime_ranking":3},{"id":93316,"name":"Sauce: Belden","address":"56 Belden Place","city":"San Francisco","state":"CA","area":"San Francisco Bay Area","postal_code":"94104","country":"US","phone":"4153978800","lat":37.791548,"lng":-122.403753,"price":2,"reserve_url":"http://www.opentable.com/single.aspx?rid=93316","mobile_reserve_url":"http://mobile.opentable.com/opentable/?restId=93316","image_url":"https://www.opentable.com/img/restimages/93316.jpg","ranking":1,"crimes_nearby":257,"crime_ranking":3},{"id":1169,"name":"Hyde Street Seafood House & Raw Bar","address":"1509 Hyde Street","city":"San Francisco","state":"CA","area":"San Francisco Bay Area","postal_code":"94109","country":"US","phone":"4159313474","lat":37.794794,"lng":-122.418234,"price":2,"reserve_url":"http://www.opentable.com/single.aspx?rid=1169","mobile_reserve_url":"http://mobile.opentable.com/opentable/?restId=1169","image_url":"https://www.opentable.com/img/restimages/1169.jpg","ranking":5,"crimes_nearby":254,"crime_ranking":3},{"id":106030,"name":"1760","address":"1760 Polk Street","city":"San Francisco","state":"CA","area":"San Francisco Bay Area","postal_code":"94109","country":"US","phone":"4153591212x","lat":37.793139,"lng":-122.421159,"price":2,"reserve_url":"http://www.opentable.com/single.aspx?rid=106030","mobile_reserve_url":"http://mobile.opentable.com/opentable/?restId=106030","image_url":"https://www.opentable.com/img/restimages/106030.jpg","ranking":3,"crimes_nearby":251,"crime_ranking":3},{"id":7696,"name":"Salt House","address":"545 Mission St","city":"San Francisco","state":"CA","area":"San Francisco Bay Area","postal_code":"94105","country":"US","phone":"4155438900x","lat":37.788688,"lng":-122.398329,"price":2,"reserve_url":"http://www.opentable.com/single.aspx?rid=7696","mobile_reserve_url":"http://mobile.opentable.com/opentable/?restId=7696","image_url":"https://www.opentable.com/img/restimages/7696.jpg","ranking":5,"crimes_nearby":244,"crime_ranking":3},{"id":13636,"name":"Mission Beach Cafe","address":"198 Guerrero St.","city":"San Francisco","state":"CA","area":"San Francisco Bay Area","postal_code":"94103","country":"US","phone":"4158610198","lat":37.76806,"lng":-122.424488,"price":3,"reserve_url":"http://www.opentable.com/single.aspx?rid=13636","mobile_reserve_url":"http://mobile.opentable.com/opentable/?restId=13636","image_url":"https://www.opentable.com/img/restimages/13636.jpg","ranking":1,"crimes_nearby":240,"crime_ranking":3},{"id":102286,"name":"Cana SF","address":"500 Florida St","city":"San Francisco","state":"CA","area":"San Francisco Bay Area","postal_code":"94111","country":"US","phone":"4155807888x","lat":37.76259,"lng":-122.411484,"price":2,"reserve_url":"http://www.opentable.com/single.aspx?rid=102286","mobile_reserve_url":"http://mobile.opentable.com/opentable/?restId=102286","image_url":"https://www.opentable.com/img/restimages/102286.jpg","ranking":1,"crimes_nearby":237,"crime_ranking":3},{"id":109618,"name":"Red Dog","address":"303 Second Street","city":"San Francisco","state":"CA","area":"San Francisco Bay Area","postal_code":"94107","country":"US","phone":"4156920211x","lat":37.785292,"lng":-122.395566,"price":3,"reserve_url":"http://www.opentable.com/single.aspx?rid=109618","mobile_reserve_url":"http://mobile.opentable.com/opentable/?restId=109618","image_url":"https://www.opentable.com/img/restimages/109618.jpg","ranking":2,"crimes_nearby":230,"crime_ranking":3},{"id":102160,"name":"Southpaw BBQ","address":"2170 Mission Street","city":"San Francisco","state":"CA","area":"San Francisco Bay Area","postal_code":"94110","country":"US","phone":"4159349300","lat":37.762312,"lng":-122.419691,"price":2,"reserve_url":"http://www.opentable.com/single.aspx?rid=102160","mobile_reserve_url":"http://mobile.opentable.com/opentable/?restId=102160","image_url":"https://www.opentable.com/img/restimages/102160.jpg","ranking":1,"crimes_nearby":227,"crime_ranking":3},{"id":37849,"name":"Jai Yun","address":"680 Clay Street","city":"San Francisco","state":"CA","area":"San Francisco Bay Area","postal_code":"94111","country":"US","phone":"4159817438","lat":37.794505,"lng":-122.404505,"price":4,"reserve_url":"http://www.opentable.com/single.aspx?rid=37849","mobile_reserve_url":"http://mobile.opentable.com/opentable/?restId=37849","image_url":"https://www.opentable.com/img/restimages/37849.jpg","ranking":4,"crimes_nearby":224,"crime_ranking":2},{"id":257,"name":"Palio d'Asti","address":"640 Sacramento Street","city":"San Francisco","state":"CA","area":"San Francisco Bay Area","postal_code":"94111","country":"US","phone":"4153959800x","lat":37.793924,"lng":-122.40369,"price":3,"reserve_url":"http://www.opentable.com/single.aspx?rid=257","mobile_reserve_url":"http://mobile.opentable.com/opentable/?restId=257","image_url":"https://www.opentable.com/img/restimages/257.jpg","ranking":3,"crimes_nearby":220,"crime_ranking":2},{"id":5641,"name":"South Park Cafe","address":"108 South Park","city":"San Francisco","state":"CA","area":"San Francisco Bay Area","postal_code":"94107","country":"US","phone":"4154957275x","lat":37.78167,"lng":-122.394459,"price":3,"reserve_url":"http://www.opentable.com/single.aspx?rid=5641","mobile_reserve_url":"http://mobile.opentable.com/opentable/?restId=5641","image_url":"https://www.opentable.com/img/restimages/5641.jpg","ranking":2,"crimes_nearby":217,"crime_ranking":2},{"id":4057,"name":"Mangia Tutti","address":"635 Clay St.","city":"San Francisco","state":"CA","area":"San Francisco Bay Area","postal_code":"94111","country":"US","phone":"4157882088","lat":37.794437,"lng":-122.403751,"price":2,"reserve_url":"http://www.opentable.com/single.aspx?rid=4057","mobile_reserve_url":"http://mobile.opentable.com/opentable/?restId=4057","image_url":"https://www.opentable.com/img/restimages/4057.jpg","ranking":5,"crimes_nearby":213,"crime_ranking":2},{"id":18424,"name":"Local Kitchen & Wine Merchant","address":"330 First Street","city":"San Francisco","state":"CA","area":"San Francisco Bay Area","postal_code":"94105","country":"US","phone":"4157774200x","lat":37.786784,"lng":-122.394216,"price":2,"reserve_url":"http://www.opentable.com/single.aspx?rid=18424","mobile_reserve_url":"http://mobile.opentable.com/opentable/?restId=18424","image_url":"https://www.opentable.com/img/restimages/18424.jpg","ranking":2,"crimes_nearby":212,"crime_ranking":2},{"id":112069,"name":"Z&Y Restaurant","address":"655 Jackson Street","city":"San Francisco","state":"CA","area":"San Francisco Bay Area","postal_code":"94133","country":"US","phone":"4159818988x","lat":37.796036,"lng":-122.406022,"price":2,"reserve_url":"http://www.opentable.com/single.aspx?rid=112069","mobile_reserve_url":"http://mobile.opentable.com/opentable/?restId=112069","image_url":"https://www.opentable.com/img/restimages/112069.jpg","ranking":1,"crimes_nearby":208,"crime_ranking":2},{"id":54859,"name":"Arabian Nights","address":"2345 Mission St","city":"San Francisco","state":"CA","area":"San Francisco Bay Area","postal_code":"94110","country":"US","phone":"4156481444","lat":37.759515,"lng":-122.418782,"price":2,"reserve_url":"http://www.opentable.com/single.aspx?rid=54859","mobile_reserve_url":"http://mobile.opentable.com/opentable/?restId=54859","image_url":"https://www.opentable.com/img/restimages/54859.jpg","ranking":3,"crimes_nearby":207,"crime_ranking":2},{"id":48226,"name":"Grub","address":"758 Valencia Street","city":"San Francisco","state":"CA","area":"San Francisco Bay Area","postal_code":"94110","country":"US","phone":"4154314782","lat":37.76082,"lng":-122.421811,"price":2,"reserve_url":"http://www.opentable.com/single.aspx?rid=48226","mobile_reserve_url":"http://mobile.opentable.com/opentable/?restId=48226","image_url":"https://www.opentable.com/img/restimages/48226.jpg","ranking":1,"crimes_nearby":204,"crime_ranking":2},{"id":112999,"name":"Palmyra","address":"700 Haight Street","city":"San Francisco","state":"CA","area":"San Francisco Bay Area","postal_code":"94117","country":"US","phone":"4158964172","lat":37.771854,"lng":-122.433876,"price":2,"reserve_url":"http://www.opentable.com/single.aspx?rid=112999","mobile_reserve_url":"http://mobile.opentable.com/opentable/?restId=112999","image_url":"https://www.opentable.com/img/restimages/112999.jpg","ranking":2,"crimes_nearby":202,"crime_ranking":2},{"id":10,"name":"Harris'","address":"2100 Van Ness Avenue","city":"San Francisco","state":"CA","area":"San Francisco Bay Area","postal_code":"94109","country":"US","phone":"4156731888","lat":37.795086,"lng":-122.422874,"price":3,"reserve_url":"http://www.opentable.com/single.aspx?rid=10","mobile_reserve_url":"http://mobile.opentable.com/opentable/?restId=10","image_url":"https://www.opentable.com/img/restimages/10.jpg","ranking":5,"crimes_nearby":200,"crime_ranking":2},{"id":17302,"name":"Live Sushi Bar","address":"2001 17th Street","city":"San Francisco","state":"CA","area":"San Francisco Bay Area","postal_code":"94103","country":"US","phone":"4158618610x","lat":37.764765,"lng":-122.403557,"price":2,"reserve_url":"http://www.opentable.com/single.aspx?rid=17302","mobile_reserve_url":"http://mobile.opentable.com/opentable/?restId=17302","image_url":"https://www.opentable.com/img/restimages/17302.jpg","ranking":5,"crimes_nearby":198,"crime_ranking":2},{"id":4221,"name":"Range","address":"842 Valencia Street","city":"San Francisco","state":"CA","area":"San Francisco Bay Area","postal_code":"94110","country":"US","phone":"4152828283x","lat":37.75941,"lng":-122.42137,"price":3,"reserve_url":"http://www.opentable.com/single.aspx?rid=4221","mobile_reserve_url":"http://mobile.opentable.com/opentable/?restId=4221","image_url":"https://www.opentable.com/img/restimages/4221.jpg","ranking":1,"crimes_nearby":196,"crime_ranking":2},{"id":3475,"name":"Brandy Ho's Hunan Food","address":"217 Columbus Ave.","city":"San Francisco","state":"CA","area":"San Francisco Bay Area","postal_code":"94133","country":"US","phone":"4157887527","lat":37.797236,"lng":-122.406126,"price":2,"reserve_url":"http://www.opentable.com/single.aspx?rid=3475","mobile_reserve_url":"http://mobile.opentable.com/opentable/?restId=3475","image_url":"https://www.opentable.com/img/restimages/3475.jpg","ranking":2,"crimes_nearby":193,"crime_ranking":2},{"id":100219,"name":"Caffe Macaroni","address":"59 Columbus Avenue","city":"San Francisco","state":"CA","area":"San Francisco Bay Area","postal_code":"94133","country":"US","phone":"4159569737","lat":37.796144,"lng":-122.404411,"price":2,"reserve_url":"http://www.opentable.com/single.aspx?rid=100219","mobile_reserve_url":"http://mobile.opentable.com/opentable/?restId=100219","image_url":"https://www.opentable.com/img/restimages/100219.jpg","ranking":2,"crimes_nearby":189,"crime_ranking":2},{"id":144508,"name":"Capo's Chicago Pizza & Fine Italian Dinners","address":"641 Vallejo Street","city":"San Francisco","state":"CA","area":"San Francisco Bay Area","postal_code":"94133","country":"US","phone":"4159868998","lat":37.798515,"lng":-122.408414,"price":2,"reserve_url":"http://www.opentable.com/single.aspx?rid=144508","mobile_reserve_url":"http://mobile.opentable.com/opentable/?restId=144508","image_url":"https://www.opentable.com/img/restimages/144508.jpg","ranking":1,"crimes_nearby":187,"crime_ranking":2},{"id":90763,"name":"Bask","address":"42 Columbus Avenue","city":"San Francisco","state":"CA","area":"San Francisco Bay Area","postal_code":"94111","country":"US","phone":"4153922275","lat":37.796272,"lng":-122.403989,"price":2,"reserve_url":"http://www.opentable.com/single.aspx?rid=90763","mobile_reserve_url":"http://mobile.opentable.com/opentable/?restId=90763","image_url":"https://www.opentable.com/img/restimages/90763.jpg","ranking":3,"crimes_nearby":185,"crime_ranking":2},{"id":6568,"name":"Bubble Lounge - SF","address":"714 Montgomery Street","city":"San Francisco","state":"CA","area":"San Francisco Bay Area","postal_code":"94111","country":"US","phone":"4154344204x","lat":37.795875,"lng":-122.403378,"price":2,"reserve_url":"http://www.opentable.com/single.aspx?rid=6568","mobile_reserve_url":"http://mobile.opentable.com/opentable/?restId=6568","image_url":"https://www.opentable.com/img/restimages/6568.jpg","ranking":3,"crimes_nearby":184,"crime_ranking":2},{"id":149539,"name":"KUSAKABE","address":"584 Washington Street","city":"San Francisco","state":"CA","area":"San Francisco Bay Area","postal_code":"94111","country":"US","phone":"4157570155","lat":37.795597,"lng":-122.402963,"price":4,"reserve_url":"http://www.opentable.com/single.aspx?rid=149539","mobile_reserve_url":"http://mobile.opentable.com/opentable/?restId=149539","image_url":"https://www.opentable.com/img/restimages/149539.jpg","ranking":2,"crimes_nearby":182,"crime_ranking":2},{"id":5825,"name":"DOSA on Valencia","address":"995 Valencia Street","city":"San Francisco","state":"CA","area":"San Francisco Bay Area","postal_code":"94110","country":"US","phone":"4156423672","lat":37.756994,"lng":-122.421135,"price":2,"reserve_url":"http://www.opentable.com/single.aspx?rid=5825","mobile_reserve_url":"http://mobile.opentable.com/opentable/?restId=5825","image_url":"https://www.opentable.com/img/restimages/5825.jpg","ranking":5,"crimes_nearby":182,"crime_ranking":2},{"id":135892,"name":"El Techo de Lolinda","address":"2518 Mission Street","city":"San Francisco","state":"CA","area":"San Francisco Bay Area","postal_code":"94110","country":"US","phone":"4155506970x","lat":37.756664,"lng":-122.419086,"price":2,"reserve_url":"http://www.opentable.com/single.aspx?rid=135892","mobile_reserve_url":"http://mobile.opentable.com/opentable/?restId=135892","image_url":"https://www.opentable.com/img/restimages/135892.jpg","ranking":1,"crimes_nearby":179,"crime_ranking":2},{"id":1906,"name":"Foreign Cinema","address":"2534 Mission St.","city":"San Francisco","state":"CA","area":"San Francisco Bay Area","postal_code":"94110","country":"US","phone":"4156487600","lat":37.756301,"lng":-122.418858,"price":2,"reserve_url":"http://www.opentable.com/single.aspx?rid=1906","mobile_reserve_url":"http://mobile.opentable.com/opentable/?restId=1906","image_url":"https://www.opentable.com/img/restimages/1906.jpg","ranking":5,"crimes_nearby":178,"crime_ranking":2},{"id":139873,"name":"Schroeder's","address":"240 Front Street","city":"San Francisco","state":"CA","area":"San Francisco Bay Area","postal_code":"94111","country":"US","phone":"4154214778x","lat":37.793792,"lng":-122.398872,"price":3,"reserve_url":"http://www.opentable.com/single.aspx?rid=139873","mobile_reserve_url":"http://mobile.opentable.com/opentable/?restId=139873","image_url":"https://www.opentable.com/img/restimages/139873.jpg","ranking":1,"crimes_nearby":177,"crime_ranking":2},{"id":37594,"name":"Saison","address":"178 Townsend St.","city":"San Francisco","state":"CA","area":"San Francisco Bay Area","postal_code":"94110","country":"US","phone":"4158287990x","lat":37.779487,"lng":-122.392203,"price":4,"reserve_url":"http://www.opentable.com/single.aspx?rid=37594","mobile_reserve_url":"http://mobile.opentable.com/opentable/?restId=37594","image_url":"https://www.opentable.com/img/restimages/37594.jpg","ranking":4,"crimes_nearby":175,"crime_ranking":2},{"id":20011,"name":"Panta Rei","address":"431 Columbus Avenue","city":"San Francisco","state":"CA","area":"San Francisco Bay Area","postal_code":"94133","country":"US","phone":"4155910900","lat":37.799148,"lng":-122.408576,"price":2,"reserve_url":"http://www.opentable.com/single.aspx?rid=20011","mobile_reserve_url":"http://mobile.opentable.com/opentable/?restId=20011","image_url":"https://www.opentable.com/img/restimages/20011.jpg","ranking":5,"crimes_nearby":175,"crime_ranking":2},{"id":5188,"name":"Garcon","address":"1101 Valencia Street","city":"San Francisco","state":"CA","area":"San Francisco Bay Area","postal_code":"94110","country":"US","phone":"4154018959","lat":37.755294,"lng":-122.420972,"price":2,"reserve_url":"http://www.opentable.com/single.aspx?rid=5188","mobile_reserve_url":"http://mobile.opentable.com/opentable/?restId=5188","image_url":"https://www.opentable.com/img/restimages/5188.jpg","ranking":5,"crimes_nearby":173,"crime_ranking":2},{"id":53860,"name":"Limon Rotisserie – Van Ness","address":"1001 S Van Ness Avenue","city":"San Francisco","state":"CA","area":"San Francisco Bay Area","postal_code":"94110","country":"US","phone":"4158212134","lat":37.757049,"lng":-122.416618,"price":2,"reserve_url":"http://www.opentable.com/single.aspx?rid=53860","mobile_reserve_url":"http://mobile.opentable.com/opentable/?restId=53860","image_url":"https://www.opentable.com/img/restimages/53860.jpg","ranking":3,"crimes_nearby":171,"crime_ranking":2},{"id":53884,"name":"Heirloom Cafe","address":"2500 Folsom St","city":"San Francisco","state":"CA","area":"San Francisco Bay Area","postal_code":"94110","country":"US","phone":"4158212500x","lat":37.75728,"lng":-122.414562,"price":2,"reserve_url":"http://www.opentable.com/single.aspx?rid=53884","mobile_reserve_url":"http://mobile.opentable.com/opentable/?restId=53884","image_url":"https://www.opentable.com/img/restimages/53884.jpg","ranking":2,"crimes_nearby":169,"crime_ranking":2},{"id":144853,"name":"Manos Nouveau","address":"3115 22nd Street","city":"San Francisco","state":"CA","area":"San Francisco Bay Area","postal_code":"94110","country":"US","phone":"4156386109x","lat":37.755402,"lng":-122.417115,"price":2,"reserve_url":"http://www.opentable.com/single.aspx?rid=144853","mobile_reserve_url":"http://mobile.opentable.com/opentable/?restId=144853","image_url":"https://www.opentable.com/img/restimages/144853.jpg","ranking":3,"crimes_nearby":167,"crime_ranking":2},{"id":100141,"name":"Gioia Pizzeria","address":"2240 Polk Street","city":"San Francisco","state":"CA","area":"San Francisco Bay Area","postal_code":"94107","country":"US","phone":"4153590971","lat":37.797516,"lng":-122.422103,"price":2,"reserve_url":"http://www.opentable.com/single.aspx?rid=100141","mobile_reserve_url":"http://mobile.opentable.com/opentable/?restId=100141","image_url":"https://www.opentable.com/img/restimages/100141.jpg","ranking":2,"crimes_nearby":165,"crime_ranking":2},{"id":8052,"name":"Paragon Restaurant & Bar - San Francisco","address":"701 Second Street","city":"San Francisco","state":"CA","area":"San Francisco Bay Area","postal_code":"94107","country":"US","phone":"4155379020x","lat":37.780622,"lng":-122.390532,"price":2,"reserve_url":"http://www.opentable.com/single.aspx?rid=8052","mobile_reserve_url":"http://mobile.opentable.com/opentable/?restId=8052","image_url":"https://www.opentable.com/img/restimages/8052.jpg","ranking":2,"crimes_nearby":161,"crime_ranking":2},{"id":30271,"name":"5A5 Steak Lounge","address":"244 Jackson Street","city":"San Francisco","state":"CA","area":"San Francisco Bay Area","postal_code":"94111","country":"US","phone":"4159892539x","lat":37.796842,"lng":-122.400346,"price":3,"reserve_url":"http://www.opentable.com/single.aspx?rid=30271","mobile_reserve_url":"http://mobile.opentable.com/opentable/?restId=30271","image_url":"https://www.opentable.com/img/restimages/30271.jpg","ranking":5,"crimes_nearby":159,"crime_ranking":2},{"id":35785,"name":"SPQR","address":"1911 Fillmore Street","city":"San Francisco","state":"CA","area":"San Francisco Bay Area","postal_code":"94115","country":"US","phone":"415-771-7779 x","lat":37.787426,"lng":-122.433566,"price":3,"reserve_url":"http://www.opentable.com/single.aspx?rid=35785","mobile_reserve_url":"http://mobile.opentable.com/opentable/?restId=35785","image_url":"https://www.opentable.com/img/restimages/35785.jpg","ranking":3,"crimes_nearby":156,"crime_ranking":2},{"id":54088,"name":"The Matterhorn Swiss Restaurant","address":"2323 Van Ness Ave.","city":"San Francisco","state":"CA","area":"San Francisco Bay Area","postal_code":"94109","country":"US","phone":"4158856116x","lat":37.797091,"lng":-122.423788,"price":3,"reserve_url":"http://www.opentable.com/single.aspx?rid=54088","mobile_reserve_url":"http://mobile.opentable.com/opentable/?restId=54088","image_url":"https://www.opentable.com/img/restimages/54088.jpg","ranking":5,"crimes_nearby":154,"crime_ranking":2},{"id":3594,"name":"MoMo's","address":"760 2nd St.","city":"San Francisco","state":"CA","area":"San Francisco Bay Area","postal_code":"94107","country":"US","phone":"4152278660x","lat":37.77986,"lng":-122.39028,"price":2,"reserve_url":"http://www.opentable.com/single.aspx?rid=3594","mobile_reserve_url":"http://mobile.opentable.com/opentable/?restId=3594","image_url":"https://www.opentable.com/img/restimages/3594.jpg","ranking":3,"crimes_nearby":153,"crime_ranking":2},{"id":1198,"name":"Frascati","address":"1901 Hyde Street","city":"San Francisco","state":"CA","area":"San Francisco Bay Area","postal_code":"94109","country":"US","phone":"4159281406","lat":37.79836,"lng":-122.419105,"price":3,"reserve_url":"http://www.opentable.com/single.aspx?rid=1198","mobile_reserve_url":"http://mobile.opentable.com/opentable/?restId=1198","image_url":"https://www.opentable.com/img/restimages/1198.jpg","ranking":2,"crimes_nearby":152,"crime_ranking":2},{"id":5343,"name":"Elite Cafe","address":"2049 Fillmore St @ California","city":"San Francisco","state":"CA","area":"San Francisco Bay Area","postal_code":"94115","country":"US","phone":"4153468400x","lat":37.788583,"lng":-122.434031,"price":2,"reserve_url":"http://www.opentable.com/single.aspx?rid=5343","mobile_reserve_url":"http://mobile.opentable.com/opentable/?restId=5343","image_url":"https://www.opentable.com/img/restimages/5343.jpg","ranking":4,"crimes_nearby":150,"crime_ranking":2},{"id":10870,"name":"Fresca - Fillmore","address":"2114 Fillmore St","city":"San Francisco","state":"CA","area":"San Francisco Bay Area","postal_code":"94115","country":"US","phone":"4154472668","lat":37.789329,"lng":-122.433903,"price":2,"reserve_url":"http://www.opentable.com/single.aspx?rid=10870","mobile_reserve_url":"http://mobile.opentable.com/opentable/?restId=10870","image_url":"https://www.opentable.com/img/restimages/10870.jpg","ranking":2,"crimes_nearby":147,"crime_ranking":1},{"id":92251,"name":"Troya - Fillmore","address":"2125 Fillmore Street","city":"San Francisco","state":"CA","area":"San Francisco Bay Area","postal_code":"94115","country":"US","phone":"4155631000","lat":37.789437,"lng":-122.434102,"price":2,"reserve_url":"http://www.opentable.com/single.aspx?rid=92251","mobile_reserve_url":"http://mobile.opentable.com/opentable/?restId=92251","image_url":"https://www.opentable.com/img/restimages/92251.jpg","ranking":4,"crimes_nearby":147,"crime_ranking":1},{"id":113125,"name":"Verbena","address":"2323 Polk Street","city":"San Francisco","state":"CA","area":"San Francisco Bay Area","postal_code":"94109","country":"US","phone":"4154412323x","lat":37.798223,"lng":-122.422531,"price":2,"reserve_url":"http://www.opentable.com/single.aspx?rid=113125","mobile_reserve_url":"http://mobile.opentable.com/opentable/?restId=113125","image_url":"https://www.opentable.com/img/restimages/113125.jpg","ranking":5,"crimes_nearby":146,"crime_ranking":1},{"id":6301,"name":"Sushi Hunter","address":"1701 Powell St","city":"San Francisco","state":"CA","area":"San Francisco Bay Area","postal_code":"94133","country":"US","phone":"(415) 291-9268x","lat":37.800385,"lng":-122.411171,"price":2,"reserve_url":"http://www.opentable.com/single.aspx?rid=6301","mobile_reserve_url":"http://mobile.opentable.com/opentable/?restId=6301","image_url":"https://www.opentable.com/img/restimages/6301.jpg","ranking":2,"crimes_nearby":144,"crime_ranking":1},{"id":96136,"name":"St. Vincent","address":"1270 Valencia Street","city":"San Francisco","state":"CA","area":"San Francisco Bay Area","postal_code":"94110","country":"US","phone":"4152851200x","lat":37.752503,"lng":-122.420862,"price":3,"reserve_url":"http://www.opentable.com/single.aspx?rid=96136","mobile_reserve_url":"http://mobile.opentable.com/opentable/?restId=96136","image_url":"https://www.opentable.com/img/restimages/96136.jpg","ranking":1,"crimes_nearby":143,"crime_ranking":1},{"id":32794,"name":"Bar Crudo - Divisadero St","address":"655 Divisadero Street","city":"San Francisco","state":"CA","area":"San Francisco Bay Area","postal_code":"94117","country":"US","phone":"415-409-0679 x","lat":37.775741,"lng":-122.438,"price":3,"reserve_url":"http://www.opentable.com/single.aspx?rid=32794","mobile_reserve_url":"http://mobile.opentable.com/opentable/?restId=32794","image_url":"https://www.opentable.com/img/restimages/32794.jpg","ranking":4,"crimes_nearby":140,"crime_ranking":1},{"id":25075,"name":"Poesia","address":"4072 18th Street","city":"San Francisco","state":"CA","area":"San Francisco Bay Area","postal_code":"94114","country":"US","phone":"4152529325x","lat":37.761156,"lng":-122.434317,"price":2,"reserve_url":"http://www.opentable.com/single.aspx?rid=25075","mobile_reserve_url":"http://mobile.opentable.com/opentable/?restId=25075","image_url":"https://www.opentable.com/img/restimages/25075.jpg","ranking":2,"crimes_nearby":137,"crime_ranking":1},{"id":85402,"name":"Local's Corner","address":"2500 Bryant Street","city":"San Francisco","state":"CA","area":"San Francisco Bay Area","postal_code":"94110","country":"US","phone":"4158007945x","lat":37.754389,"lng":-122.409286,"price":3,"reserve_url":"http://www.opentable.com/single.aspx?rid=85402","mobile_reserve_url":"http://mobile.opentable.com/opentable/?restId=85402","image_url":"https://www.opentable.com/img/restimages/85402.jpg","ranking":4,"crimes_nearby":133,"crime_ranking":1},{"id":2005,"name":"Chaya Brasserie","address":"132 The Embarcadero","city":"San Francisco","state":"CA","area":"San Francisco Bay Area","postal_code":"94105","country":"US","phone":"4157778688x","lat":37.793217,"lng":-122.392048,"price":3,"reserve_url":"http://www.opentable.com/single.aspx?rid=2005","mobile_reserve_url":"http://mobile.opentable.com/opentable/?restId=2005","image_url":"https://www.opentable.com/img/restimages/2005.jpg","ranking":5,"crimes_nearby":126,"crime_ranking":1},{"id":1101,"name":"Palomino - San Francisco","address":"345 Spear St.","city":"San Francisco","state":"CA","area":"San Francisco Bay Area","postal_code":"94105","country":"US","phone":"4155127400x","lat":37.789803,"lng":-122.389757,"price":2,"reserve_url":"http://www.opentable.com/single.aspx?rid=1101","mobile_reserve_url":"http://mobile.opentable.com/opentable/?restId=1101","image_url":"https://www.opentable.com/img/restimages/1101.jpg","ranking":3,"crimes_nearby":122,"crime_ranking":1},{"id":47869,"name":"The Brick Yard","address":"1787 Union Street","city":"San Francisco","state":"CA","area":"San Francisco Bay Area","postal_code":"94123","country":"US","phone":"4154004712x","lat":37.797697,"lng":-122.428644,"price":2,"reserve_url":"http://www.opentable.com/single.aspx?rid=47869","mobile_reserve_url":"http://mobile.opentable.com/opentable/?restId=47869","image_url":"https://www.opentable.com/img/restimages/47869.jpg","ranking":4,"crimes_nearby":118,"crime_ranking":1},{"id":5823,"name":"Capannina","address":"1809 Union St","city":"San Francisco","state":"CA","area":"San Francisco Bay Area","postal_code":"94123","country":"US","phone":"4154098001","lat":37.797924,"lng":-122.429248,"price":2,"reserve_url":"http://www.opentable.com/single.aspx?rid=5823","mobile_reserve_url":"http://mobile.opentable.com/opentable/?restId=5823","image_url":"https://www.opentable.com/img/restimages/5823.jpg","ranking":3,"crimes_nearby":115,"crime_ranking":1},{"id":102271,"name":"Pane e Vino Trattoria","address":"1715 Union St.","city":"San Francisco","state":"CA","area":"San Francisco Bay Area","postal_code":"94123","country":"US","phone":"4153462111","lat":37.798008,"lng":-122.427618,"price":3,"reserve_url":"http://www.opentable.com/single.aspx?rid=102271","mobile_reserve_url":"http://mobile.opentable.com/opentable/?restId=102271","image_url":"https://www.opentable.com/img/restimages/102271.jpg","ranking":1,"crimes_nearby":113,"crime_ranking":1},{"id":110668,"name":"Pera","address":"1457 18th Street","city":"San Francisco","state":"CA","area":"San Francisco Bay Area","postal_code":"94107","country":"US","phone":"4157963812x","lat":37.762535,"lng":-122.397172,"price":2,"reserve_url":"http://www.opentable.com/single.aspx?rid=110668","mobile_reserve_url":"http://mobile.opentable.com/opentable/?restId=110668","image_url":"https://www.opentable.com/img/restimages/110668.jpg","ranking":1,"crimes_nearby":108,"crime_ranking":1},{"id":17410,"name":"Betelnut Pejiu Wu","address":"2030 Union Street","city":"San Francisco","state":"CA","area":"San Francisco Bay Area","postal_code":"94123","country":"US","phone":"4159298855","lat":37.797452,"lng":-122.432776,"price":3,"reserve_url":"http://www.opentable.com/single.aspx?rid=17410","mobile_reserve_url":"http://mobile.opentable.com/opentable/?restId=17410","image_url":"https://www.opentable.com/img/restimages/17410.jpg","ranking":3,"crimes_nearby":101,"crime_ranking":1},{"id":149782,"name":"The Palace","address":"3047 Mission Street","city":"San Francisco","state":"CA","area":"San Francisco Bay Area","postal_code":"94110","country":"US","phone":"4156665218","lat":37.748435,"lng":-122.417857,"price":3,"reserve_url":"http://www.opentable.com/single.aspx?rid=149782","mobile_reserve_url":"http://mobile.opentable.com/opentable/?restId=149782","image_url":"https://www.opentable.com/img/restimages/149782.jpg","ranking":5,"crimes_nearby":101,"crime_ranking":1},{"id":2432,"name":"Hornblower Cruises & Events","address":"Hornblower Landing at Pier 3","city":"San Francisco","state":"CA","area":"San Francisco Bay Area","postal_code":"94111","country":"US","phone":"4157888866x7","lat":37.79784,"lng":-122.395337,"price":4,"reserve_url":"http://www.opentable.com/single.aspx?rid=2432","mobile_reserve_url":"http://mobile.opentable.com/opentable/?restId=2432","image_url":"https://www.opentable.com/img/restimages/2432.jpg","ranking":4,"crimes_nearby":96,"crime_ranking":1},{"id":136495,"name":"Hillside Supper Club","address":"300 Precita Avenue","city":"San Francisco","state":"CA","area":"San Francisco Bay Area","postal_code":"94110","country":"US","phone":"4152856005x","lat":37.746643,"lng":-122.413371,"price":2,"reserve_url":"http://www.opentable.com/single.aspx?rid=136495","mobile_reserve_url":"http://mobile.opentable.com/opentable/?restId=136495","image_url":"https://www.opentable.com/img/restimages/136495.jpg","ranking":1,"crimes_nearby":91,"crime_ranking":1},{"id":6161,"name":"Terzo","address":"3011 Steiner St.","city":"San Francisco","state":"CA","area":"San Francisco Bay Area","postal_code":"94123","country":"US","phone":"4154413200x","lat":37.797,"lng":-122.437,"price":2,"reserve_url":"http://www.opentable.com/single.aspx?rid=6161","mobile_reserve_url":"http://mobile.opentable.com/opentable/?restId=6161","image_url":"https://www.opentable.com/img/restimages/6161.jpg","ranking":4,"crimes_nearby":81,"crime_ranking":1},{"id":99472,"name":"Fior D'Italia","address":"2237 Mason Street","city":"San Francisco","state":"CA","area":"San Francisco Bay Area","postal_code":"94133","country":"US","phone":"4159861886x","lat":37.804265,"lng":-122.413473,"price":3,"reserve_url":"http://www.opentable.com/single.aspx?rid=99472","mobile_reserve_url":"http://mobile.opentable.com/opentable/?restId=99472","image_url":"https://www.opentable.com/img/restimages/99472.jpg","ranking":2,"crimes_nearby":79,"crime_ranking":1},{"id":44572,"name":"Lupa Trattoria","address":"4109 24th Street","city":"San Francisco","state":"CA","area":"San Francisco Bay Area","postal_code":"94114","country":"US","phone":"4152825872","lat":37.751027,"lng":-122.434522,"price":2,"reserve_url":"http://www.opentable.com/single.aspx?rid=44572","mobile_reserve_url":"http://mobile.opentable.com/opentable/?restId=44572","image_url":"https://www.opentable.com/img/restimages/44572.jpg","ranking":4,"crimes_nearby":78,"crime_ranking":1},{"id":23521,"name":"Blue Plate","address":"3218 Mission Street","city":"San Francisco","state":"CA","area":"San Francisco Bay Area","postal_code":"94110","country":"US","phone":"4152826777x","lat":37.745275,"lng":-122.420435,"price":3,"reserve_url":"http://www.opentable.com/single.aspx?rid=23521","mobile_reserve_url":"http://mobile.opentable.com/opentable/?restId=23521","image_url":"https://www.opentable.com/img/restimages/23521.jpg","ranking":1,"crimes_nearby":76,"crime_ranking":1},{"id":117262,"name":"Ichi Sushi & Ni Bar","address":"3282 Mission Street","city":"San Francisco","state":"CA","area":"San Francisco Bay Area","postal_code":"94110","country":"US","phone":"4155254750","lat":37.742681,"lng":-122.421542,"price":3,"reserve_url":"http://www.opentable.com/single.aspx?rid=117262","mobile_reserve_url":"http://mobile.opentable.com/opentable/?restId=117262","image_url":"https://www.opentable.com/img/restimages/117262.jpg","ranking":1,"crimes_nearby":70,"crime_ranking":1},{"id":113560,"name":"Sabrosa","address":"3200 Fillmore St.","city":"San Francisco","state":"CA","area":"San Francisco Bay Area","postal_code":"94123","country":"US","phone":"4156386500x","lat":37.799187,"lng":-122.435658,"price":2,"reserve_url":"http://www.opentable.com/single.aspx?rid=113560","mobile_reserve_url":"http://mobile.opentable.com/opentable/?restId=113560","image_url":"https://www.opentable.com/img/restimages/113560.jpg","ranking":3,"crimes_nearby":63,"crime_ranking":1},{"id":103708,"name":"Padrecito","address":"901 Cole Street","city":"San Francisco","state":"CA","area":"San Francisco Bay Area","postal_code":"94117","country":"US","phone":"4157425505","lat":37.765677,"lng":-122.450074,"price":2,"reserve_url":"http://www.opentable.com/single.aspx?rid=103708","mobile_reserve_url":"http://mobile.opentable.com/opentable/?restId=103708","image_url":"https://www.opentable.com/img/restimages/103708.jpg","ranking":5,"crimes_nearby":61,"crime_ranking":1},{"id":2534,"name":"Butterfly, The Embarcadero","address":"Pier 33, The Embarcadero at Bay Street","city":"San Francisco","state":"CA","area":"San Francisco Bay Area","postal_code":"94111","country":"US","phone":"4158648999x","lat":37.806732,"lng":-122.405172,"price":2,"reserve_url":"http://www.opentable.com/single.aspx?rid=2534","mobile_reserve_url":"http://mobile.opentable.com/opentable/?restId=2534","image_url":"https://www.opentable.com/img/restimages/2534.jpg","ranking":3,"crimes_nearby":60,"crime_ranking":1},{"id":20233,"name":"La Ciccia","address":"291 30th Street","city":"San Francisco","state":"CA","area":"San Francisco Bay Area","postal_code":"94131","country":"US","phone":"4155508114","lat":37.741866,"lng":-122.426614,"price":2,"reserve_url":"http://www.opentable.com/single.aspx?rid=20233","mobile_reserve_url":"http://mobile.opentable.com/opentable/?restId=20233","image_url":"https://www.opentable.com/img/restimages/20233.jpg","ranking":5,"crimes_nearby":55,"crime_ranking":1},{"id":136063,"name":"CDXX","address":"5800 Third Street #1001","city":"San Francisco","state":"CA","area":"San Francisco Bay Area","postal_code":"94124","country":"US","phone":"4156525450x","lat":37.725277,"lng":-122.395194,"price":2,"reserve_url":"http://www.opentable.com/single.aspx?rid=136063","mobile_reserve_url":"http://mobile.opentable.com/opentable/?restId=136063","image_url":"https://www.opentable.com/img/restimages/136063.jpg","ranking":2,"crimes_nearby":54,"crime_ranking":1},{"id":28999,"name":"Blue Mermaid - Argonaut Hotel","address":"471 Jefferson Street","city":"San Francisco","state":"CA","area":"San Francisco Bay Area","postal_code":"94133","country":"US","phone":"4157712222x","lat":37.807669,"lng":-122.42028,"price":2,"reserve_url":"http://www.opentable.com/single.aspx?rid=28999","mobile_reserve_url":"http://mobile.opentable.com/opentable/?restId=28999","image_url":"https://www.opentable.com/img/restimages/28999.jpg","ranking":3,"crimes_nearby":53,"crime_ranking":1},{"id":3414,"name":"Alioto's","address":"#8 Fisherman's Wharf","city":"San Francisco","state":"CA","area":"San Francisco Bay Area","postal_code":"94133","country":"US","phone":"4156730183x","lat":37.809305,"lng":-122.416565,"price":2,"reserve_url":"http://www.opentable.com/single.aspx?rid=3414","mobile_reserve_url":"http://mobile.opentable.com/opentable/?restId=3414","image_url":"https://www.opentable.com/img/restimages/3414.jpg","ranking":3,"crimes_nearby":52,"crime_ranking":1},{"id":5879,"name":"Fog Harbor Fish House","address":"Pier 39 #A-202","city":"San Francisco","state":"CA","area":"San Francisco Bay Area","postal_code":"94133","country":"US","phone":"4154212442x","lat":37.808866,"lng":-122.41022,"price":2,"reserve_url":"http://www.opentable.com/single.aspx?rid=5879","mobile_reserve_url":"http://mobile.opentable.com/opentable/?restId=5879","image_url":"https://www.opentable.com/img/restimages/5879.jpg","ranking":5,"crimes_nearby":51,"crime_ranking":1},{"id":13591,"name":"Spruce","address":"3640 Sacramento St","city":"San Francisco","state":"CA","area":"San Francisco Bay Area","postal_code":"94118","country":"US","phone":"4159315100x","lat":37.787725,"lng":-122.452758,"price":3,"reserve_url":"http://www.opentable.com/single.aspx?rid=13591","mobile_reserve_url":"http://mobile.opentable.com/opentable/?restId=13591","image_url":"https://www.opentable.com/img/restimages/13591.jpg","ranking":3,"crimes_nearby":47,"crime_ranking":1},{"id":3723,"name":"Magic Flute","address":"3673 Sacramento St.","city":"San Francisco","state":"CA","area":"San Francisco Bay Area","postal_code":"94118","country":"US","phone":"4159221225","lat":37.787164,"lng":-122.453084,"price":2,"reserve_url":"http://www.opentable.com/single.aspx?rid=3723","mobile_reserve_url":"http://mobile.opentable.com/opentable/?restId=3723","image_url":"https://www.opentable.com/img/restimages/3723.jpg","ranking":3,"crimes_nearby":46,"crime_ranking":1},{"id":79216,"name":"Castagna - San Francisco","address":"2015 Chestnut Street","city":"San Francisco","state":"CA","area":"San Francisco Bay Area","postal_code":"94123","country":"US","phone":"4154404290x","lat":37.800693,"lng":-122.43661,"price":2,"reserve_url":"http://www.opentable.com/single.aspx?rid=79216","mobile_reserve_url":"http://mobile.opentable.com/opentable/?restId=79216","image_url":"https://www.opentable.com/img/restimages/79216.jpg","ranking":5,"crimes_nearby":46,"crime_ranking":1},{"id":4961,"name":"Isa","address":"3324 Steiner St.","city":"San Francisco","state":"CA","area":"San Francisco Bay Area","postal_code":"94123","country":"US","phone":"4155679588x","lat":37.800092,"lng":-122.437794,"price":3,"reserve_url":"http://www.opentable.com/single.aspx?rid=4961","mobile_reserve_url":"http://mobile.opentable.com/opentable/?restId=4961","image_url":"https://www.opentable.com/img/restimages/4961.jpg","ranking":5,"crimes_nearby":45,"crime_ranking":1},{"id":25291,"name":"The Moss Room","address":"55 Music Concourse Drive","city":"San Francisco","state":"CA","area":"San Francisco Bay Area","postal_code":"94118","country":"US","phone":"4158766121","lat":37.769958,"lng":-122.467233,"price":2,"reserve_url":"http://www.opentable.com/single.aspx?rid=25291","mobile_reserve_url":"http://mobile.opentable.com/opentable/?restId=25291","image_url":"https://www.opentable.com/img/restimages/25291.jpg","ranking":3,"crimes_nearby":44,"crime_ranking":1},{"id":1342,"name":"Bella Trattoria Italiana","address":"3854 Geary Blvd.","city":"San Francisco","state":"CA","area":"San Francisco Bay Area","postal_code":"94118","country":"US","phone":"4152210305","lat":37.781337,"lng":-122.460529,"price":2,"reserve_url":"http://www.opentable.com/single.aspx?rid=1342","mobile_reserve_url":"http://mobile.opentable.com/opentable/?restId=1342","image_url":"https://www.opentable.com/img/restimages/1342.jpg","ranking":1,"crimes_nearby":41,"crime_ranking":1},{"id":6001,"name":"Mamacita","address":"2317 Chestnut St","city":"San Francisco","state":"CA","area":"San Francisco Bay Area","postal_code":"94123","country":"US","phone":"4153468494","lat":37.799953,"lng":-122.44147,"price":2,"reserve_url":"http://www.opentable.com/single.aspx?rid=6001","mobile_reserve_url":"http://mobile.opentable.com/opentable/?restId=6001","image_url":"https://www.opentable.com/img/restimages/6001.jpg","ranking":3,"crimes_nearby":39,"crime_ranking":1},{"id":2910,"name":"A16 - San Francisco","address":"2355 Chestnut St.","city":"San Francisco","state":"CA","area":"San Francisco Bay Area","postal_code":"94123","country":"US","phone":"4157712216x","lat":37.799792,"lng":-122.442054,"price":3,"reserve_url":"http://www.opentable.com/single.aspx?rid=2910","mobile_reserve_url":"http://mobile.opentable.com/opentable/?restId=2910","image_url":"https://www.opentable.com/img/restimages/2910.jpg","ranking":2,"crimes_nearby":38,"crime_ranking":1},{"id":4121,"name":"Ristobar","address":"2300 Chestnut St","city":"San Francisco","state":"CA","area":"San Francisco Bay Area","postal_code":"94123","country":"US","phone":"4159236464x","lat":37.80035,"lng":-122.441486,"price":2,"reserve_url":"http://www.opentable.com/single.aspx?rid=4121","mobile_reserve_url":"http://mobile.opentable.com/opentable/?restId=4121","image_url":"https://www.opentable.com/img/restimages/4121.jpg","ranking":3,"crimes_nearby":38,"crime_ranking":1},{"id":149515,"name":"Causwells","address":"2346 Chestnut Street","city":"San Francisco","state":"CA","area":"San Francisco Bay Area","postal_code":"94123","country":"US","phone":"4154476081","lat":37.8001,"lng":-122.442008,"price":2,"reserve_url":"http://www.opentable.com/single.aspx?rid=149515","mobile_reserve_url":"http://mobile.opentable.com/opentable/?restId=149515","image_url":"https://www.opentable.com/img/restimages/149515.jpg","ranking":4,"crimes_nearby":37,"crime_ranking":1},{"id":112081,"name":"Chili House","address":"726 Clement Street","city":"San Francisco","state":"CA","area":"San Francisco Bay Area","postal_code":"94118","country":"US","phone":"4153872658","lat":37.782939,"lng":-122.467138,"price":2,"reserve_url":"http://www.opentable.com/single.aspx?rid=112081","mobile_reserve_url":"http://mobile.opentable.com/opentable/?restId=112081","image_url":"https://www.opentable.com/img/restimages/112081.jpg","ranking":2,"crimes_nearby":35,"crime_ranking":1},{"id":90937,"name":"Tikka Masala - Inner Sunset","address":"98 Judah Street","city":"San Francisco","state":"CA","area":"San Francisco Bay Area","postal_code":"94122","country":"US","phone":"4157312550","lat":37.76246,"lng":-122.462821,"price":2,"reserve_url":"http://www.opentable.com/single.aspx?rid=90937","mobile_reserve_url":"http://mobile.opentable.com/opentable/?restId=90937","image_url":"https://www.opentable.com/img/restimages/90937.jpg","ranking":5,"crimes_nearby":31,"crime_ranking":1},{"id":111319,"name":"Craw Station","address":"1336 9th Avenue","city":"San Francisco","state":"CA","area":"San Francisco Bay Area","postal_code":"94122","country":"US","phone":"4156829980x","lat":37.76335,"lng":-122.466157,"price":2,"reserve_url":"http://www.opentable.com/single.aspx?rid=111319","mobile_reserve_url":"http://mobile.opentable.com/opentable/?restId=111319","image_url":"https://www.opentable.com/img/restimages/111319.jpg","ranking":2,"crimes_nearby":28,"crime_ranking":1},{"id":51505,"name":"Spiazzo Ristorante","address":"33 West Portal Avenue","city":"San Francisco","state":"CA","area":"San Francisco Bay Area","postal_code":"94127","country":"US","phone":"4156649511","lat":37.740371,"lng":-122.466014,"price":2,"reserve_url":"http://www.opentable.com/single.aspx?rid=51505","mobile_reserve_url":"http://mobile.opentable.com/opentable/?restId=51505","image_url":"https://www.opentable.com/img/restimages/51505.jpg","ranking":4,"crimes_nearby":26,"crime_ranking":1},{"id":29863,"name":"India Clay Oven Restaurant and Bar - Richmond District","address":"2436 Clement Street","city":"San Francisco","state":"CA","area":"San Francisco Bay Area","postal_code":"94121","country":"US","phone":"4157510505x","lat":37.782236,"lng":-122.485565,"price":2,"reserve_url":"http://www.opentable.com/single.aspx?rid=29863","mobile_reserve_url":"http://mobile.opentable.com/opentable/?restId=29863","image_url":"https://www.opentable.com/img/restimages/29863.jpg","ranking":1,"crimes_nearby":19,"crime_ranking":1},{"id":74941,"name":"Cajun Pacific","address":"4542 Irving St","city":"San Francisco","state":"CA","area":"San Francisco Bay Area","postal_code":"94122","country":"US","phone":"4155046652","lat":37.762389,"lng":-122.506833,"price":2,"reserve_url":"http://www.opentable.com/single.aspx?rid=74941","mobile_reserve_url":"http://mobile.opentable.com/opentable/?restId=74941","image_url":"https://www.opentable.com/img/restimages/74941.jpg","ranking":2,"crimes_nearby":15,"crime_ranking":1},{"id":103366,"name":"Tal-Y-Tara Tea & Polo Shoppe","address":"6439 California Street","city":"San Francisco","state":"CA","area":"San Francisco Bay Area","postal_code":"94121","country":"US","phone":"4157519275","lat":37.783675,"lng":-122.486778,"price":2,"reserve_url":"http://www.opentable.com/single.aspx?rid=103366","mobile_reserve_url":"http://mobile.opentable.com/opentable/?restId=103366","image_url":"https://www.opentable.com/img/restimages/103366.jpg","ranking":2,"crimes_nearby":14,"crime_ranking":1},{"id":21052,"name":"Spasso","address":"769 Laurel Street","city":"San Carlos","state":"CA","area":"San Francisco Bay Area","postal_code":"94070","country":"US","phone":"6505925886","lat":37.504474,"lng":-122.258334,"price":2,"reserve_url":"http://www.opentable.com/single.aspx?rid=21052","mobile_reserve_url":"http://mobile.opentable.com/opentable/?restId=21052","image_url":"https://www.opentable.com/img/restimages/21052.jpg","ranking":2,"crimes_nearby":0,"crime_ranking":1},{"id":2115,"name":"Left Bank Santana Row","address":"377 Santana Row, Suite #1100","city":"San Jose","state":"CA","area":"San Francisco Bay Area","postal_code":"95128","country":"US","phone":"4089843500x","lat":37.320046,"lng":-121.947971,"price":2,"reserve_url":"http://www.opentable.com/single.aspx?rid=2115","mobile_reserve_url":"http://mobile.opentable.com/opentable/?restId=2115","image_url":"https://www.opentable.com/img/restimages/2115.jpg","ranking":3,"crimes_nearby":0,"crime_ranking":1},{"id":4305,"name":"Fahrenheit Restaurant & Lounge","address":"99 East San Fernando Street","city":"San Jose","state":"CA","area":"San Francisco Bay Area","postal_code":"95113","country":"US","phone":"(408) 998-9998","lat":37.335286,"lng":-121.887082,"price":2,"reserve_url":"http://www.opentable.com/single.aspx?rid=4305","mobile_reserve_url":"http://mobile.opentable.com/opentable/?restId=4305","image_url":"https://www.opentable.com/img/restimages/4305.jpg","ranking":2,"crimes_nearby":0,"crime_ranking":1},{"id":73192,"name":"Sweet T’s Restaurant + Bar","address":"2097 Stagecoach Rd Suite 100","city":"Santa Rosa","state":"CA","area":"San Francisco Bay Area","postal_code":"95404","country":"US","phone":"7075953935","lat":38.486452,"lng":-122.70936,"price":2,"reserve_url":"http://www.opentable.com/single.aspx?rid=73192","mobile_reserve_url":"http://mobile.opentable.com/opentable/?restId=73192","image_url":"https://www.opentable.com/img/restimages/73192.jpg","ranking":4,"crimes_nearby":0,"crime_ranking":1},{"id":102673,"name":"Nemea","address":"96 South First Street","city":"San Jose","state":"CA","area":"San Francisco Bay Area","postal_code":"95113","country":"US","phone":"4082794225","lat":37.334373,"lng":-121.889225,"price":2,"reserve_url":"http://www.opentable.com/single.aspx?rid=102673","mobile_reserve_url":"http://mobile.opentable.com/opentable/?restId=102673","image_url":"https://www.opentable.com/img/restimages/102673.jpg","ranking":2,"crimes_nearby":0,"crime_ranking":1},{"id":147646,"name":"Takara Japanese Ramen and Cuisine","address":"665 El Camino Real","city":"South San Francisco","state":"CA","area":"San Francisco Bay Area","postal_code":"94080","country":"US","phone":"6505889993x","lat":37.649572,"lng":-122.430475,"price":2,"reserve_url":"http://www.opentable.com/single.aspx?rid=147646","mobile_reserve_url":"http://mobile.opentable.com/opentable/?restId=147646","image_url":"https://www.opentable.com/img/restimages/147646.jpg","ranking":5,"crimes_nearby":0,"crime_ranking":1},{"id":96466,"name":"Zona Rosa","address":"1411 The Alameda","city":"San Jose","state":"CA","area":"San Francisco Bay Area","postal_code":"95126","country":"US","phone":"4082751411","lat":37.333041,"lng":-121.914167,"price":2,"reserve_url":"http://www.opentable.com/single.aspx?rid=96466","mobile_reserve_url":"http://mobile.opentable.com/opentable/?restId=96466","image_url":"https://www.opentable.com/img/restimages/96466.jpg","ranking":5,"crimes_nearby":0,"crime_ranking":1},{"id":4540,"name":"Spiedo - San Mateo","address":"223 East Fourth Ave","city":"San Mateo","state":"CA","area":"San Francisco Bay Area","postal_code":"94401","country":"US","phone":"6503750818","lat":37.564547,"lng":-122.321857,"price":2,"reserve_url":"http://www.opentable.com/single.aspx?rid=4540","mobile_reserve_url":"http://mobile.opentable.com/opentable/?restId=4540","image_url":"https://www.opentable.com/img/restimages/4540.jpg","ranking":2,"crimes_nearby":0,"crime_ranking":1},{"id":53953,"name":"Pearl of the Ocean","address":"736 Water St","city":"Santa Cruz","state":"CA","area":"San Francisco Bay Area","postal_code":"95060","country":"US","phone":"8314572350","lat":36.980948,"lng":-122.016158,"price":2,"reserve_url":"http://www.opentable.com/single.aspx?rid=53953","mobile_reserve_url":"http://mobile.opentable.com/opentable/?restId=53953","image_url":"https://www.opentable.com/img/restimages/53953.jpg","ranking":2,"crimes_nearby":0,"crime_ranking":1},{"id":4693,"name":"Roti Indian Bistro - San Mateo","address":"201 East 3rd Ave","city":"San Mateo","state":"CA","area":"San Francisco Bay Area","postal_code":"94401","country":"US","phone":"6503407684x","lat":37.565154,"lng":-122.323127,"price":2,"reserve_url":"http://www.opentable.com/single.aspx?rid=4693","mobile_reserve_url":"http://mobile.opentable.com/opentable/?restId=4693","image_url":"https://www.opentable.com/img/restimages/4693.jpg","ranking":2,"crimes_nearby":0,"crime_ranking":1},{"id":105064,"name":"Cafe Tandoor","address":"420 Market place","city":"San Ramon","state":"CA","area":"San Francisco Bay Area","postal_code":"94583","country":"US","phone":"9252441559x","lat":37.763296,"lng":-121.950196,"price":2,"reserve_url":"http://www.opentable.com/single.aspx?rid=105064","mobile_reserve_url":"http://mobile.opentable.com/opentable/?restId=105064","image_url":"https://www.opentable.com/img/restimages/105064.jpg","ranking":5,"crimes_nearby":0,"crime_ranking":1},{"id":45172,"name":"Attic","address":"234 South B Street","city":"San Mateo","state":"CA","area":"San Francisco Bay Area","postal_code":"94401","country":"US","phone":"6503424506","lat":37.565951,"lng":-122.322914,"price":2,"reserve_url":"http://www.opentable.com/single.aspx?rid=45172","mobile_reserve_url":"http://mobile.opentable.com/opentable/?restId=45172","image_url":"https://www.opentable.com/img/restimages/45172.jpg","ranking":3,"crimes_nearby":0,"crime_ranking":1},{"id":5892,"name":"Vin Antico","address":"881 Fourth St","city":"San Rafael","state":"CA","area":"San Francisco Bay Area","postal_code":"94901","country":"US","phone":"4157210600x","lat":37.972911,"lng":-122.52561,"price":3,"reserve_url":"http://www.opentable.com/single.aspx?rid=5892","mobile_reserve_url":"http://mobile.opentable.com/opentable/?restId=5892","image_url":"https://www.opentable.com/img/restimages/5892.jpg","ranking":5,"crimes_nearby":0,"crime_ranking":1},{"id":145537,"name":"Brasa Churrascaria and Brewpub; Brasa.","address":"505 Mendocino Ave","city":"Santa Rosa","state":"CA","area":"San Francisco Bay Area","postal_code":"95404","country":"US","phone":"7076239382","lat":38.442431,"lng":-122.715776,"price":2,"reserve_url":"http://www.opentable.com/single.aspx?rid=145537","mobile_reserve_url":"http://mobile.opentable.com/opentable/?restId=145537","image_url":"https://www.opentable.com/img/restimages/145537.jpg","ranking":5,"crimes_nearby":0,"crime_ranking":1},{"id":100342,"name":"St. Francis Winery & Vineyards","address":"100 Pythian Road","city":"Santa Rosa","state":"CA","area":"San Francisco Bay Area","postal_code":"95409","country":"US","phone":"(800) 795-6674x","lat":38.436864,"lng":-122.577211,"price":3,"reserve_url":"http://www.opentable.com/single.aspx?rid=100342","mobile_reserve_url":"http://mobile.opentable.com/opentable/?restId=100342","image_url":"https://www.opentable.com/img/restimages/100342.jpg","ranking":5,"crimes_nearby":0,"crime_ranking":1},{"id":100102,"name":"Hollins House - Pasatiempo Golf Club","address":"20 Clubhouse Rd","city":"Santa Cruz","state":"CA","area":"San Francisco Bay Area","postal_code":"95060","country":"US","phone":"8314599177x","lat":37.004416,"lng":-122.024766,"price":3,"reserve_url":"http://www.opentable.com/single.aspx?rid=100102","mobile_reserve_url":"http://mobile.opentable.com/opentable/?restId=100102","image_url":"https://www.opentable.com/img/restimages/100102.jpg","ranking":1,"crimes_nearby":0,"crime_ranking":1},{"id":17428,"name":"La Tosca","address":"777 Laurel Street","city":"San Carlos","state":"CA","area":"San Francisco Bay Area","postal_code":"94070","country":"US","phone":"6505927749","lat":37.504375,"lng":-122.258214,"price":2,"reserve_url":"http://www.opentable.com/single.aspx?rid=17428","mobile_reserve_url":"http://mobile.opentable.com/opentable/?restId=17428","image_url":"https://www.opentable.com/img/restimages/17428.jpg","ranking":2,"crimes_nearby":0,"crime_ranking":1},{"id":1477,"name":"John Ash & Co.","address":"4330 Barnes Rd.","city":"Santa Rosa","state":"CA","area":"San Francisco Bay Area","postal_code":"95403","country":"US","phone":"7075277687","lat":38.497944,"lng":-122.760955,"price":3,"reserve_url":"http://www.opentable.com/single.aspx?rid=1477","mobile_reserve_url":"http://mobile.opentable.com/opentable/?restId=1477","image_url":"https://www.opentable.com/img/restimages/1477.jpg","ranking":2,"crimes_nearby":0,"crime_ranking":1},{"id":113080,"name":"La Gare","address":"208 Wilson St","city":"Santa Rosa","state":"CA","area":"San Francisco Bay Area","postal_code":"95401","country":"US","phone":"7075284355","lat":38.437095,"lng":-122.720151,"price":2,"reserve_url":"http://www.opentable.com/single.aspx?rid=113080","mobile_reserve_url":"http://mobile.opentable.com/opentable/?restId=113080","image_url":"https://www.opentable.com/img/restimages/113080.jpg","ranking":1,"crimes_nearby":0,"crime_ranking":1},{"id":145198,"name":"The Pullman Kitchen","address":"205 5th. St.","city":"Santa Rosa","state":"CA","area":"San Francisco Bay Area","postal_code":"95401","country":"US","phone":"7075454300x","lat":38.438884,"lng":-122.719858,"price":2,"reserve_url":"http://www.opentable.com/single.aspx?rid=145198","mobile_reserve_url":"http://mobile.opentable.com/opentable/?restId=145198","image_url":"https://www.opentable.com/img/restimages/145198.jpg","ranking":4,"crimes_nearby":0,"crime_ranking":1},{"id":4620,"name":"Pasta's Trattoria - Pleasanton","address":"405 Main St.","city":"Pleasanton","state":"CA","area":"San Francisco Bay Area","postal_code":"94566","country":"US","phone":"9254172222","lat":37.659757,"lng":-121.876552,"price":2,"reserve_url":"http://www.opentable.com/single.aspx?rid=4620","mobile_reserve_url":"http://mobile.opentable.com/opentable/?restId=4620","image_url":"https://www.opentable.com/img/restimages/4620.jpg","ranking":4,"crimes_nearby":0,"crime_ranking":1},{"id":145801,"name":"Misaka Grill","address":"1362 S. Winchester Blvd","city":"San Jose","state":"CA","area":"San Francisco Bay Area","postal_code":"95128","country":"US","phone":"4088666668","lat":37.299431,"lng":-121.949557,"price":2,"reserve_url":"http://www.opentable.com/single.aspx?rid=145801","mobile_reserve_url":"http://mobile.opentable.com/opentable/?restId=145801","image_url":"https://www.opentable.com/img/restimages/145801.jpg","ranking":1,"crimes_nearby":0,"crime_ranking":1},{"id":147,"name":"Birk's","address":"3955 Freedom Circle","city":"Santa Clara","state":"CA","area":"San Francisco Bay Area","postal_code":"95054","country":"US","phone":"4089806400x","lat":37.386133,"lng":-121.97229,"price":3,"reserve_url":"http://www.opentable.com/single.aspx?rid=147","mobile_reserve_url":"http://mobile.opentable.com/opentable/?restId=147","image_url":"https://www.opentable.com/img/restimages/147.jpg","ranking":1,"crimes_nearby":0,"crime_ranking":1},{"id":118882,"name":"Nomikai","address":"48 S. First Street","city":"San Jose","state":"CA","area":"San Francisco Bay Area","postal_code":"95113","country":"US","phone":"4082877199x","lat":37.335285,"lng":-121.889934,"price":2,"reserve_url":"http://www.opentable.com/single.aspx?rid=118882","mobile_reserve_url":"http://mobile.opentable.com/opentable/?restId=118882","image_url":"https://www.opentable.com/img/restimages/118882.jpg","ranking":1,"crimes_nearby":0,"crime_ranking":1},{"id":18829,"name":"Stark's Steakhouse","address":"521 Adams Street","city":"Santa Rosa","state":"CA","area":"San Francisco Bay Area","postal_code":"95401","country":"US","phone":"7075465100","lat":38.43882,"lng":-122.723221,"price":3,"reserve_url":"http://www.opentable.com/single.aspx?rid=18829","mobile_reserve_url":"http://mobile.opentable.com/opentable/?restId=18829","image_url":"https://www.opentable.com/img/restimages/18829.jpg","ranking":5,"crimes_nearby":0,"crime_ranking":1},{"id":118927,"name":"Fogo de Chao Brazilian Steakhouse - San Jose","address":"377 Santana Row #1090","city":"San Jose","state":"CA","area":"San Francisco Bay Area","postal_code":"95128","country":"US","phone":"4082447001x","lat":37.319863,"lng":-121.94899,"price":3,"reserve_url":"http://www.opentable.com/single.aspx?rid=118927","mobile_reserve_url":"http://mobile.opentable.com/opentable/?restId=118927","image_url":"https://www.opentable.com/img/restimages/118927.jpg","ranking":2,"crimes_nearby":0,"crime_ranking":1},{"id":53716,"name":"All Spice – San Mateo","address":"1602 S. El Camino Real","city":"San Mateo","state":"CA","area":"San Francisco Bay Area","postal_code":"94402","country":"US","phone":"6506274303x","lat":37.552859,"lng":-122.315669,"price":3,"reserve_url":"http://www.opentable.com/single.aspx?rid=53716","mobile_reserve_url":"http://mobile.opentable.com/opentable/?restId=53716","image_url":"https://www.opentable.com/img/restimages/53716.jpg","ranking":5,"crimes_nearby":0,"crime_ranking":1},{"id":111070,"name":"Queenie Teas Pop Up","address":"198 Sir Francis Drake Blvd","city":"San Anselmo","state":"CA","area":"San Francisco Bay Area","postal_code":"94960","country":"US","phone":"4154544178x","lat":37.974686,"lng":-122.561629,"price":3,"reserve_url":"http://www.opentable.com/single.aspx?rid=111070","mobile_reserve_url":"http://mobile.opentable.com/opentable/?restId=111070","image_url":"https://www.opentable.com/img/restimages/111070.jpg","ranking":5,"crimes_nearby":0,"crime_ranking":1},{"id":3669,"name":"Menara Moroccan Restaurant","address":"41 East Gish Rd.","city":"San Jose","state":"CA","area":"San Francisco Bay Area","postal_code":"95112","country":"US","phone":"4084531983","lat":37.362904,"lng":-121.909148,"price":2,"reserve_url":"http://www.opentable.com/single.aspx?rid=3669","mobile_reserve_url":"http://mobile.opentable.com/opentable/?restId=3669","image_url":"https://www.opentable.com/img/restimages/3669.jpg","ranking":5,"crimes_nearby":0,"crime_ranking":1},{"id":26203,"name":"Espetus Churrascaria - San Mateo","address":"710 South B Street","city":"San Mateo","state":"CA","area":"San Francisco Bay Area","postal_code":"94401","country":"US","phone":"6503428700x","lat":37.562305,"lng":-122.319378,"price":4,"reserve_url":"http://www.opentable.com/single.aspx?rid=26203","mobile_reserve_url":"http://mobile.opentable.com/opentable/?restId=26203","image_url":"https://www.opentable.com/img/restimages/26203.jpg","ranking":3,"crimes_nearby":0,"crime_ranking":1},{"id":151327,"name":"Burnt Rice","address":"121 Curtner Ave","city":"San Jose","state":"CA","area":"San Francisco Bay Area","postal_code":"95125","country":"US","phone":"4084904776","lat":37.30206,"lng":-121.865211,"price":2,"reserve_url":"http://www.opentable.com/single.aspx?rid=151327","mobile_reserve_url":"http://mobile.opentable.com/opentable/?restId=151327","image_url":"https://www.opentable.com/img/restimages/151327.jpg","ranking":2,"crimes_nearby":0,"crime_ranking":1},{"id":4542,"name":"Rosie McCann's - Santana Row","address":"355 Santana Row #1060","city":"San Jose","state":"CA","area":"San Francisco Bay Area","postal_code":"95128","country":"US","phone":"4082471706","lat":37.32084,"lng":-121.947922,"price":2,"reserve_url":"http://www.opentable.com/single.aspx?rid=4542","mobile_reserve_url":"http://mobile.opentable.com/opentable/?restId=4542","image_url":"https://www.opentable.com/img/restimages/4542.jpg","ranking":5,"crimes_nearby":0,"crime_ranking":1},{"id":110302,"name":"West End Tap & Kitchen","address":"334 D Ingalls St","city":"Santa Cruz","state":"CA","area":"San Francisco Bay Area","postal_code":"95060","country":"US","phone":"8314718115","lat":36.959143,"lng":-122.047255,"price":2,"reserve_url":"http://www.opentable.com/single.aspx?rid=110302","mobile_reserve_url":"http://mobile.opentable.com/opentable/?restId=110302","image_url":"https://www.opentable.com/img/restimages/110302.jpg","ranking":2,"crimes_nearby":0,"crime_ranking":1},{"id":101305,"name":"Hay Market","address":"1185 Lincoln Ave","city":"San Jose","state":"CA","area":"San Francisco Bay Area","postal_code":"95125","country":"US","phone":"4082954800x","lat":37.306917,"lng":-121.900157,"price":2,"reserve_url":"http://www.opentable.com/single.aspx?rid=101305","mobile_reserve_url":"http://mobile.opentable.com/opentable/?restId=101305","image_url":"https://www.opentable.com/img/restimages/101305.jpg","ranking":5,"crimes_nearby":0,"crime_ranking":1},{"id":5057,"name":"Sino Restaurant & Lounge","address":"377 Santana Row #1000","city":"San Jose","state":"CA","area":"San Francisco Bay Area","postal_code":"95128","country":"US","phone":"4082478880","lat":37.320046,"lng":-121.947971,"price":3,"reserve_url":"http://www.opentable.com/single.aspx?rid=5057","mobile_reserve_url":"http://mobile.opentable.com/opentable/?restId=5057","image_url":"https://www.opentable.com/img/restimages/5057.jpg","ranking":5,"crimes_nearby":0,"crime_ranking":1},{"id":10699,"name":"Siena Bistro","address":"1359 Lincoln Avenue","city":"San Jose","state":"CA","area":"San Francisco Bay Area","postal_code":"95125","country":"US","phone":"4082710837","lat":37.304099,"lng":-121.898231,"price":2,"reserve_url":"http://www.opentable.com/single.aspx?rid=10699","mobile_reserve_url":"http://mobile.opentable.com/opentable/?restId=10699","image_url":"https://www.opentable.com/img/restimages/10699.jpg","ranking":1,"crimes_nearby":0,"crime_ranking":1},{"id":108910,"name":"Paul Martin's American Grill - San Mateo","address":"101 Hillsdale Shopping Center","city":"San Mateo","state":"CA","area":"San Francisco Bay Area","postal_code":"94403","country":"US","phone":"6502127400","lat":37.538396,"lng":-122.300606,"price":2,"reserve_url":"http://www.opentable.com/single.aspx?rid=108910","mobile_reserve_url":"http://mobile.opentable.com/opentable/?restId=108910","image_url":"https://www.opentable.com/img/restimages/108910.jpg","ranking":4,"crimes_nearby":0,"crime_ranking":1},{"id":100765,"name":"La Lanterna Ristorante","address":"180 W. 25th Avenue","city":"San Mateo","state":"CA","area":"San Francisco Bay Area","postal_code":"94403","country":"US","phone":"6503418877","lat":37.543504,"lng":-122.308762,"price":2,"reserve_url":"http://www.opentable.com/single.aspx?rid=100765","mobile_reserve_url":"http://mobile.opentable.com/opentable/?restId=100765","image_url":"https://www.opentable.com/img/restimages/100765.jpg","ranking":1,"crimes_nearby":0,"crime_ranking":1},{"id":2003,"name":"Vin Santo","address":"1346 Lincoln Ave.","city":"San Jose","state":"CA","area":"San Francisco Bay Area","postal_code":"95125","country":"US","phone":"4089202508","lat":37.304261,"lng":-121.897868,"price":2,"reserve_url":"http://www.opentable.com/single.aspx?rid=2003","mobile_reserve_url":"http://mobile.opentable.com/opentable/?restId=2003","image_url":"https://www.opentable.com/img/restimages/2003.jpg","ranking":3,"crimes_nearby":0,"crime_ranking":1},{"id":120,"name":"Paradiso","address":"685 Bancroft Avenue","city":"San Leandro","state":"CA","area":"San Francisco Bay Area","postal_code":"94577","country":"US","phone":"5104309310x","lat":37.733006,"lng":-122.150987,"price":2,"reserve_url":"http://www.opentable.com/single.aspx?rid=120","mobile_reserve_url":"http://mobile.opentable.com/opentable/?restId=120","image_url":"https://www.opentable.com/img/restimages/120.jpg","ranking":3,"crimes_nearby":0,"crime_ranking":1},{"id":103714,"name":"FlipSide Steakhouse","address":"138 Calistoga Road","city":"Santa Rosa","state":"CA","area":"San Francisco Bay Area","postal_code":"95409","country":"US","phone":"7075397700x","lat":38.465072,"lng":-122.653123,"price":2,"reserve_url":"http://www.opentable.com/single.aspx?rid=103714","mobile_reserve_url":"http://mobile.opentable.com/opentable/?restId=103714","image_url":"https://www.opentable.com/img/restimages/103714.jpg","ranking":4,"crimes_nearby":0,"crime_ranking":1},{"id":87670,"name":"Cleo's Brazilian Steakhouse & Churrascaria","address":"446 San Mateo Ave","city":"San Bruno","state":"CA","area":"San Francisco Bay Area","postal_code":"94066","country":"US","phone":"6506159120","lat":37.622848,"lng":-122.411218,"price":3,"reserve_url":"http://www.opentable.com/single.aspx?rid=87670","mobile_reserve_url":"http://mobile.opentable.com/opentable/?restId=87670","image_url":"https://www.opentable.com/img/restimages/87670.jpg","ranking":3,"crimes_nearby":0,"crime_ranking":1},{"id":3329,"name":"Habana Cuba","address":"238 Race Street","city":"San Jose","state":"CA","area":"San Francisco Bay Area","postal_code":"95126","country":"US","phone":"4089982822x","lat":37.325242,"lng":-121.911525,"price":2,"reserve_url":"http://www.opentable.com/single.aspx?rid=3329","mobile_reserve_url":"http://mobile.opentable.com/opentable/?restId=3329","image_url":"https://www.opentable.com/img/restimages/3329.jpg","ranking":2,"crimes_nearby":0,"crime_ranking":1},{"id":89350,"name":"Solaire Restaurant + Bar","address":"611 Ocean Street","city":"Santa Cruz","state":"CA","area":"San Francisco Bay Area","postal_code":"95060","country":"US","phone":"8316004545x","lat":36.97693,"lng":-122.020458,"price":2,"reserve_url":"http://www.opentable.com/single.aspx?rid=89350","mobile_reserve_url":"http://mobile.opentable.com/opentable/?restId=89350","image_url":"https://www.opentable.com/img/restimages/89350.jpg","ranking":4,"crimes_nearby":0,"crime_ranking":1},{"id":148792,"name":"By-Th'-Bucket Bar & Grill","address":"4565 Stevens Creek Blvd","city":"Santa Clara","state":"CA","area":"San Francisco Bay Area","postal_code":"95051","country":"US","phone":"4082486244x","lat":37.323494,"lng":-121.982779,"price":2,"reserve_url":"http://www.opentable.com/single.aspx?rid=148792","mobile_reserve_url":"http://mobile.opentable.com/opentable/?restId=148792","image_url":"https://www.opentable.com/img/restimages/148792.jpg","ranking":3,"crimes_nearby":0,"crime_ranking":1},{"id":30790,"name":"Paolo's - San Jose","address":"333 West San Carlos Street","city":"San Jose","state":"CA","area":"San Francisco Bay Area","postal_code":"95110","country":"US","phone":"408-294-2558x","lat":37.328686,"lng":-121.89426,"price":3,"reserve_url":"http://www.opentable.com/single.aspx?rid=30790","mobile_reserve_url":"http://mobile.opentable.com/opentable/?restId=30790","image_url":"https://www.opentable.com/img/restimages/30790.jpg","ranking":5,"crimes_nearby":0,"crime_ranking":1},{"id":27664,"name":"Amber India - Santana Row","address":"377 Santana Row","city":"San Jose","state":"CA","area":"San Francisco Bay Area","postal_code":"95128","country":"US","phone":"4082485400","lat":37.320046,"lng":-121.947971,"price":2,"reserve_url":"http://www.opentable.com/single.aspx?rid=27664","mobile_reserve_url":"http://mobile.opentable.com/opentable/?restId=27664","image_url":"https://www.opentable.com/img/restimages/27664.jpg","ranking":1,"crimes_nearby":0,"crime_ranking":1},{"id":78574,"name":"Sazon - Santa Rosa","address":"1129 Sebastopol Rd.","city":"Santa Rosa","state":"CA","area":"San Francisco Bay Area","postal_code":"95407","country":"US","phone":"7075234346","lat":38.428871,"lng":-122.732742,"price":2,"reserve_url":"http://www.opentable.com/single.aspx?rid=78574","mobile_reserve_url":"http://mobile.opentable.com/opentable/?restId=78574","image_url":"https://www.opentable.com/img/restimages/78574.jpg","ranking":1,"crimes_nearby":0,"crime_ranking":1}]