{
   "sf_rest_items":[
      {
         "rid":2,
         "name":"Thirsty Bear",
         "address":"661 Howard St.",
         "address2":"",
         "city":"San Francisco",
         "state":"CA",
         "country":"US",
         "latitude":"37.7856500",
         "longitude":"-122.3997340",
         "postal_code":"94105",
         "phone_number":"4159740905",
         "metro_name":"San Francisco Bay Area",
         "reservation_url":"http://www.opentable.com/restaurant/profile/2",
         "profile_url":"http://www.opentable.com/restaurant/profile/2",
         "is_restaurant_in_group":false,
         "ranking": 5
      },
      {
         "rid":4,
         "name":"One Market Restaurant",
         "address":"1 Market Street",
         "address2":"",
         "city":"San Francisco",
         "state":"CA",
         "country":"US",
         "latitude":"37.7938190",
         "longitude":"-122.3950890",
         "postal_code":"94105",
         "phone_number":"4157775577x",
         "metro_name":"San Francisco Bay Area",
         "reservation_url":"http://www.opentable.com/restaurant/profile/4",
         "profile_url":"http://www.opentable.com/restaurant/profile/4",
         "is_restaurant_in_group":false,
         "ranking": 4
      },
      {
         "rid":10,
         "name":"Harris'",
         "address":"2100 Van Ness Avenue",
         "address2":"",
         "city":"San Francisco",
         "state":"CA",
         "country":"US",
         "latitude":"37.7950860",
         "longitude":"-122.4228740",
         "postal_code":"94109",
         "phone_number":"4156731888x",
         "metro_name":"San Francisco Bay Area",
         "reservation_url":"http://www.opentable.com/restaurant/profile/10",
         "profile_url":"http://www.opentable.com/restaurant/profile/10",
         "is_restaurant_in_group":false,
         "ranking": 5
      },
      {
         "rid":12,
         "name":"Lark Creek Walnut Creek",
         "address":"1360 Locust Street",
         "address2":"",
         "city":"Walnut Creek",
         "state":"CA",
         "country":"US",
         "latitude":"37.8984660",
         "longitude":"-122.0618430",
         "postal_code":"94596",
         "phone_number":"9252561234x",
         "metro_name":"San Francisco Bay Area",
         "reservation_url":"http://www.opentable.com/restaurant/profile/12",
         "profile_url":"http://www.opentable.com/restaurant/profile/12",
         "is_restaurant_in_group":false,
         "ranking": 4
      },
      {
         "rid":17,
         "name":"E&O Kitchen and Bar",
         "address":"314 Sutter Street",
         "address2":"",
         "city":"San Francisco",
         "state":"CA",
         "country":"US",
         "latitude":"37.7896160",
         "longitude":"-122.4058460",
         "postal_code":"94108",
         "phone_number":"4156930303x",
         "metro_name":"San Francisco Bay Area",
         "reservation_url":"http://www.opentable.com/restaurant/profile/17",
         "profile_url":"http://www.opentable.com/restaurant/profile/17",
         "is_restaurant_in_group":false,
         "ranking": 3
      },
      {
         "rid":24,
         "name":"INDO Restaurant & Lounge",
         "address":"3295 El Camino Real",
         "address2":"",
         "city":"Palo Alto",
         "state":"CA",
         "country":"US",
         "latitude":"37.4208820",
         "longitude":"-122.1370050",
         "postal_code":"94306",
         "phone_number":"650-494-9184x",
         "metro_name":"San Francisco Bay Area",
         "reservation_url":"http://www.opentable.com/restaurant/profile/24",
         "profile_url":"http://www.opentable.com/restaurant/profile/24",
         "is_restaurant_in_group":false,
         "ranking": 5
      },
      {
         "rid":27,
         "name":"Jardiniere",
         "address":"300 Grove St.",
         "address2":"",
         "city":"San Francisco",
         "state":"CA",
         "country":"US",
         "latitude":"37.7781840",
         "longitude":"-122.4217750",
         "postal_code":"94102",
         "phone_number":"4158615555x",
         "metro_name":"San Francisco Bay Area",
         "reservation_url":"http://www.opentable.com/restaurant/profile/27",
         "profile_url":"http://www.opentable.com/restaurant/profile/27",
         "is_restaurant_in_group":false,
         "ranking": 3
      },
      {
         "rid":30,
         "name":"Campton Place",
         "address":"340 Stockton Street",
         "address2":"",
         "city":"San Francisco",
         "state":"CA",
         "country":"US",
         "latitude":"37.7891570",
         "longitude":"-122.4065560",
         "postal_code":"94108",
         "phone_number":"4159555555x",
         "metro_name":"San Francisco Bay Area",
         "reservation_url":"http://www.opentable.com/restaurant/profile/30",
         "profile_url":"http://www.opentable.com/restaurant/profile/30",
         "is_restaurant_in_group":false,
         "ranking": 5
      },
      {
         "rid":32,
         "name":"Faz Sunnyvale",
         "address":"1108 North Mathilda Ave.",
         "address2":"",
         "city":"Sunnyvale",
         "state":"CA",
         "country":"US",
         "latitude":"37.4046830",
         "longitude":"-122.0247300",
         "postal_code":"94089",
         "phone_number":"4087528000x",
         "metro_name":"San Francisco Bay Area",
         "reservation_url":"http://www.opentable.com/restaurant/profile/32",
         "profile_url":"http://www.opentable.com/restaurant/profile/32",
         "is_restaurant_in_group":false,
         "ranking": 5
      },
      {
         "rid":37,
         "name":"Le Colonial - SF",
         "address":"20 Cosmo Place",
         "address2":"",
         "city":"San Francisco",
         "state":"CA",
         "country":"US",
         "latitude":"37.7883870",
         "longitude":"-122.4123520",
         "postal_code":"94109",
         "phone_number":"4159313600x",
         "metro_name":"San Francisco Bay Area",
         "reservation_url":"http://www.opentable.com/restaurant/profile/37",
         "profile_url":"http://www.opentable.com/restaurant/profile/37",
         "is_restaurant_in_group":false,
         "ranking": 5
      },
      {
         "rid":40,
         "name":"Faz Pleasanton",
         "address":"5121 Hopyard Road",
         "address2":"",
         "city":"Pleasanton",
         "state":"CA",
         "country":"US",
         "latitude":"37.6968560",
         "longitude":"-121.9034610",
         "postal_code":"94588",
         "phone_number":"9254600444x",
         "metro_name":"San Francisco Bay Area",
         "reservation_url":"http://www.opentable.com/restaurant/profile/40",
         "profile_url":"http://www.opentable.com/restaurant/profile/40",
         "is_restaurant_in_group":false,
         "ranking": 4
      },
      {
         "rid":41,
         "name":"Farallon",
         "address":"450 Post Street",
         "address2":"",
         "city":"San Francisco",
         "state":"CA",
         "country":"US",
         "latitude":"37.7884570",
         "longitude":"-122.4093680",
         "postal_code":"94102",
         "phone_number":"4159566969x",
         "metro_name":"San Francisco Bay Area",
         "reservation_url":"http://www.opentable.com/restaurant/profile/41",
         "profile_url":"http://www.opentable.com/restaurant/profile/41",
         "is_restaurant_in_group":false,
         "ranking": 3
      },
      {
         "rid":42,
         "name":"Faz Danville",
         "address":"600 Hartz Avenue",
         "address2":"",
         "city":"Danville",
         "state":"CA",
         "country":"US",
         "latitude":"37.8202020",
         "longitude":"-121.9969260",
         "postal_code":"94526",
         "phone_number":"9258381320x",
         "metro_name":"San Francisco Bay Area",
         "reservation_url":"http://www.opentable.com/restaurant/profile/42",
         "profile_url":"http://www.opentable.com/restaurant/profile/42",
         "is_restaurant_in_group":false
      },
      {
         "rid":49,
         "name":"Mathilde Bistro",
         "address":"315 Fifth St.",
         "address2":"",
         "city":"San Francisco",
         "state":"CA",
         "country":"US",
         "latitude":"37.7799670",
         "longitude":"-122.4030140",
         "postal_code":"94107",
         "phone_number":"4155466128x",
         "metro_name":"San Francisco Bay Area",
         "reservation_url":"http://www.opentable.com/restaurant/profile/49",
         "profile_url":"http://www.opentable.com/restaurant/profile/49",
         "is_restaurant_in_group":false,
         "ranking": 4
      },
      {
         "rid":55,
         "name":"The Waterfront Restaurant and Cafe",
         "address":"Pier 7 on the Embarcadero",
         "address2":"",
         "city":"San Francisco",
         "state":"CA",
         "country":"US",
         "latitude":"37.7993210",
         "longitude":"-122.3975790",
         "postal_code":"94111",
         "phone_number":"415 391 2696x",
         "metro_name":"San Francisco Bay Area",
         "reservation_url":"http://www.opentable.com/restaurant/profile/55",
         "profile_url":"http://www.opentable.com/restaurant/profile/55",
         "is_restaurant_in_group":false,
         "ranking": 5
      },
      {
         "rid":90,
         "name":"Tratto",
         "address":"501 Geary St.",
         "address2":"",
         "city":"San Francisco",
         "state":"CA",
         "country":"US",
         "latitude":"37.7866170",
         "longitude":"-122.4118110",
         "postal_code":"94109",
         "phone_number":"4152920101x",
         "metro_name":"San Francisco Bay Area",
         "reservation_url":"http://www.opentable.com/restaurant/profile/90",
         "profile_url":"http://www.opentable.com/restaurant/profile/90",
         "is_restaurant_in_group":false,
         "ranking": 5
      },
      {
         "rid":117,
         "name":"Brasserie S&P at Loews San Francisco Hotel",
         "address":"222 Sansome St.",
         "address2":"",
         "city":"San Francisco",
         "state":"CA",
         "country":"US",
         "latitude":"37.7924630",
         "longitude":"-122.4009820",
         "postal_code":"94104",
         "phone_number":"415-276-9620x",
         "metro_name":"San Francisco Bay Area",
         "reservation_url":"http://www.opentable.com/restaurant/profile/117",
         "profile_url":"http://www.opentable.com/restaurant/profile/117",
         "is_restaurant_in_group":false,
         "ranking": 4
      },
      {
         "rid":120,
         "name":"Paradiso",
         "address":"685 Bancroft Avenue",
         "address2":"",
         "city":"San Leandro",
         "state":"CA",
         "country":"US",
         "latitude":"37.7330060",
         "longitude":"-122.1509870",
         "postal_code":"94577",
         "phone_number":"5104309310x",
         "metro_name":"San Francisco Bay Area",
         "reservation_url":"http://www.opentable.com/restaurant/profile/120",
         "profile_url":"http://www.opentable.com/restaurant/profile/120",
         "is_restaurant_in_group":false,
         "ranking": 1
      },
      {
         "rid":122,
         "name":"Pescatore",
         "address":"2455 Mason Street",
         "address2":"",
         "city":"San Francisco",
         "state":"CA",
         "country":"US",
         "latitude":"37.8061670",
         "longitude":"-122.4137110",
         "postal_code":"94133",
         "phone_number":"4155611111",
         "metro_name":"San Francisco Bay Area",
         "reservation_url":"http://www.opentable.com/restaurant/profile/122",
         "profile_url":"http://www.opentable.com/restaurant/profile/122",
         "is_restaurant_in_group":false
      },
      {
         "rid":126,
         "name":"Blackhawk Grille",
         "address":"3540 Blackhawk Plaza Circle",
         "address2":"",
         "city":"Danville",
         "state":"CA",
         "country":"US",
         "latitude":"37.7999770",
         "longitude":"-121.9182700",
         "postal_code":"94506",
         "phone_number":"9257364295",
         "metro_name":"San Francisco Bay Area",
         "reservation_url":"http://www.opentable.com/restaurant/profile/126",
         "profile_url":"http://www.opentable.com/restaurant/profile/126",
         "is_restaurant_in_group":false,
         "ranking": 4
      },
      {
         "rid":130,
         "name":"Boulevard",
         "address":"1 Mission St.",
         "address2":"",
         "city":"San Francisco",
         "state":"CA",
         "country":"US",
         "latitude":"37.7933200",
         "longitude":"-122.3927610",
         "postal_code":"94105",
         "phone_number":"4155436084x",
         "metro_name":"San Francisco Bay Area",
         "reservation_url":"http://www.opentable.com/restaurant/profile/130",
         "profile_url":"http://www.opentable.com/restaurant/profile/130",
         "is_restaurant_in_group":false,
         "ranking": 5
      },
      {
         "rid":141,
         "name":"ANZU",
         "address":"222 Mason St.",
         "address2":"",
         "city":"San Francisco",
         "state":"CA",
         "country":"US",
         "latitude":"37.7856790",
         "longitude":"-122.4092530",
         "postal_code":"94102",
         "phone_number":"4153941100x",
         "metro_name":"San Francisco Bay Area",
         "reservation_url":"http://www.opentable.com/restaurant/profile/141",
         "profile_url":"http://www.opentable.com/restaurant/profile/141",
         "is_restaurant_in_group":false,
         "ranking": 5
      },
      {
         "rid":147,
         "name":"Birk's",
         "address":"3955 Freedom Circle",
         "address2":"",
         "city":"Santa Clara",
         "state":"CA",
         "country":"US",
         "latitude":"37.3861330",
         "longitude":"-121.9722900",
         "postal_code":"95054",
         "phone_number":"4089806400x",
         "metro_name":"San Francisco Bay Area",
         "reservation_url":"http://www.opentable.com/restaurant/profile/147",
         "profile_url":"http://www.opentable.com/restaurant/profile/147",
         "is_restaurant_in_group":false,
         "ranking": 5
      },
      {
         "rid":148,
         "name":"Cocotte",
         "address":"1521 Hyde St.",
         "address2":"",
         "city":"San Francisco",
         "state":"CA",
         "country":"US",
         "latitude":"37.7948770",
         "longitude":"-122.4182530",
         "postal_code":"94109",
         "phone_number":"4152924415x",
         "metro_name":"San Francisco Bay Area",
         "reservation_url":"http://www.opentable.com/restaurant/profile/148",
         "profile_url":"http://www.opentable.com/restaurant/profile/148",
         "is_restaurant_in_group":false,
         "ranking": 5
      },
      {
         "rid":159,
         "name":"Scala's Bistro",
         "address":"432 Powell St.",
         "address2":"",
         "city":"San Francisco",
         "state":"CA",
         "country":"US",
         "latitude":"37.7889840",
         "longitude":"-122.4082260",
         "postal_code":"94102",
         "phone_number":"4153958555x",
         "metro_name":"San Francisco Bay Area",
         "reservation_url":"http://www.opentable.com/restaurant/profile/159",
         "profile_url":"http://www.opentable.com/restaurant/profile/159",
         "is_restaurant_in_group":false,
         "ranking": 4
      },
      {
         "rid":167,
         "name":"Cafe Tiramisu",
         "address":"28 Belden Place",
         "address2":"",
         "city":"San Francisco",
         "state":"CA",
         "country":"US",
         "latitude":"37.7912050",
         "longitude":"-122.4036100",
         "postal_code":"94104",
         "phone_number":"4154217044",
         "metro_name":"San Francisco Bay Area",
         "reservation_url":"http://www.opentable.com/restaurant/profile/167",
         "profile_url":"http://www.opentable.com/restaurant/profile/167",
         "is_restaurant_in_group":false,
         "ranking": 4
      },
      {
         "rid":183,
         "name":"La Folie",
         "address":"2316 Polk St.",
         "address2":"",
         "city":"San Francisco",
         "state":"CA",
         "country":"US",
         "latitude":"37.7981250",
         "longitude":"-122.4222310",
         "postal_code":"94109",
         "phone_number":"4157765577x",
         "metro_name":"San Francisco Bay Area",
         "reservation_url":"http://www.opentable.com/restaurant/profile/183",
         "profile_url":"http://www.opentable.com/restaurant/profile/183",
         "is_restaurant_in_group":false,
         "ranking": 5
      },
      {
         "rid":192,
         "name":"The Basin",
         "address":"14572 Big Basin Way",
         "address2":"",
         "city":"Saratoga",
         "state":"CA",
         "country":"US",
         "latitude":"37.2560010",
         "longitude":"-122.0351560",
         "postal_code":"95070",
         "phone_number":"4088671906x",
         "metro_name":"San Francisco Bay Area",
         "reservation_url":"http://www.opentable.com/restaurant/profile/192",
         "profile_url":"http://www.opentable.com/restaurant/profile/192",
         "is_restaurant_in_group":false,
         "ranking": 5
      },
      {
         "rid":200,
         "name":"Jasper's Corner Tap and Kitchen",
         "address":"401 Taylor St",
         "address2":"",
         "city":"San Francisco",
         "state":"CA",
         "country":"US",
         "latitude":"37.7860510",
         "longitude":"-122.4113670",
         "postal_code":"94102",
         "phone_number":"4157757979x",
         "metro_name":"San Francisco Bay Area",
         "reservation_url":"http://www.opentable.com/restaurant/profile/200",
         "profile_url":"http://www.opentable.com/restaurant/profile/200",
         "is_restaurant_in_group":false,
         "ranking": 2
      },
      {
         "rid":209,
         "name":"Piatti - Mill Valley",
         "address":"625 Redwood Highway",
         "address2":"",
         "city":"Mill Valley",
         "state":"CA",
         "country":"US",
         "latitude":"37.8925830",
         "longitude":"-122.5165930",
         "postal_code":"94941",
         "phone_number":"4153802525x",
         "metro_name":"San Francisco Bay Area",
         "reservation_url":"http://www.opentable.com/restaurant/profile/209",
         "profile_url":"http://www.opentable.com/restaurant/profile/209",
         "is_restaurant_in_group":false,
         "ranking": 5
      },
      {
         "rid":226,
         "name":"Left Bank Menlo Park",
         "address":"635 Santa Cruz Ave.",
         "address2":"",
         "city":"Menlo Park",
         "state":"CA",
         "country":"US",
         "latitude":"37.4526290",
         "longitude":"-122.1833700",
         "postal_code":"94025",
         "phone_number":"6504736543",
         "metro_name":"San Francisco Bay Area",
         "reservation_url":"http://www.opentable.com/restaurant/profile/226",
         "profile_url":"http://www.opentable.com/restaurant/profile/226",
         "is_restaurant_in_group":false,
         "ranking": 4
      },
      {
         "rid":227,
         "name":"Left Bank Larkspur",
         "address":"507 Magnolia Ave.",
         "address2":"",
         "city":"Larkspur",
         "state":"CA",
         "country":"US",
         "latitude":"37.9363530",
         "longitude":"-122.5351080",
         "postal_code":"94939",
         "phone_number":"4159273331",
         "metro_name":"San Francisco Bay Area",
         "reservation_url":"http://www.opentable.com/restaurant/profile/227",
         "profile_url":"http://www.opentable.com/restaurant/profile/227",
         "is_restaurant_in_group":false
      },
      {
         "rid":241,
         "name":"Dirty Habit",
         "address":"12 Fourth St.",
         "address2":"",
         "city":"San Francisco",
         "state":"CA",
         "country":"US",
         "latitude":"37.7856200",
         "longitude":"-122.4056780",
         "postal_code":"94103",
         "phone_number":"4153481555x",
         "metro_name":"San Francisco Bay Area",
         "reservation_url":"http://www.opentable.com/restaurant/profile/241",
         "profile_url":"http://www.opentable.com/restaurant/profile/241",
         "is_restaurant_in_group":false,
         "ranking": 3
      },
      {
         "rid":254,
         "name":"Viognier",
         "address":"222 E. 4th Ave.",
         "address2":"",
         "city":"San Mateo",
         "state":"CA",
         "country":"US",
         "latitude":"37.5644480",
         "longitude":"-122.3219970",
         "postal_code":"94401",
         "phone_number":"6506853727x",
         "metro_name":"San Francisco Bay Area",
         "reservation_url":"http://www.opentable.com/restaurant/profile/254",
         "profile_url":"http://www.opentable.com/restaurant/profile/254",
         "is_restaurant_in_group":false,
         "ranking": 4
      },
      {
         "rid":256,
         "name":"Buckeye Roadhouse",
         "address":"15 Shoreline Highway",
         "address2":"",
         "city":"Mill Valley",
         "state":"CA",
         "country":"US",
         "latitude":"37.8785530",
         "longitude":"-122.5162670",
         "postal_code":"94941",
         "phone_number":"4153312600",
         "metro_name":"San Francisco Bay Area",
         "reservation_url":"http://www.opentable.com/restaurant/profile/256",
         "profile_url":"http://www.opentable.com/restaurant/profile/256",
         "is_restaurant_in_group":false,
         "ranking": 5
      },
      {
         "rid":257,
         "name":"Palio d'Asti",
         "address":"640 Sacramento Street",
         "address2":"",
         "city":"San Francisco",
         "state":"CA",
         "country":"US",
         "latitude":"37.7939240",
         "longitude":"-122.4036900",
         "postal_code":"94111",
         "phone_number":"4153959800x",
         "metro_name":"San Francisco Bay Area",
         "reservation_url":"http://www.opentable.com/restaurant/profile/257",
         "profile_url":"http://www.opentable.com/restaurant/profile/257",
         "is_restaurant_in_group":false,
         "ranking": 5
      },
      {
         "rid":282,
         "name":"Ideale",
         "address":"1309 Grant Avenue",
         "address2":"",
         "city":"San Francisco",
         "state":"CA",
         "country":"US",
         "latitude":"37.7989690",
         "longitude":"-122.4073120",
         "postal_code":"94109",
         "phone_number":"4153914129x",
         "metro_name":"San Francisco Bay Area",
         "reservation_url":"http://www.opentable.com/restaurant/profile/282",
         "profile_url":"http://www.opentable.com/restaurant/profile/282",
         "is_restaurant_in_group":false,
         "ranking": 5
      },
      {
         "rid":333,
         "name":"Menlo Grill Bistro & Bar",
         "address":"100 El Camino Real",
         "address2":"",
         "city":"Menlo Park",
         "state":"CA",
         "country":"US",
         "latitude":"37.4476930",
         "longitude":"-122.1727640",
         "postal_code":"94025",
         "phone_number":"6503302790",
         "metro_name":"San Francisco Bay Area",
         "reservation_url":"http://www.opentable.com/restaurant/profile/333",
         "profile_url":"http://www.opentable.com/restaurant/profile/333",
         "is_restaurant_in_group":false,
         "ranking": 4
      },
      {
         "rid":338,
         "name":"Alegrias Food from Spain",
         "address":"2018 Lombard",
         "address2":"",
         "city":"San Francisco",
         "state":"CA",
         "country":"US",
         "latitude":"37.8000830",
         "longitude":"-122.4348350",
         "postal_code":"94123",
         "phone_number":"4159298888x",
         "metro_name":"San Francisco Bay Area",
         "reservation_url":"http://www.opentable.com/restaurant/profile/338",
         "profile_url":"http://www.opentable.com/restaurant/profile/338",
         "is_restaurant_in_group":false,
         "ranking": 3
      },
      {
         "rid":362,
         "name":"Meritage at the Claremont",
         "address":"41 Tunnel Road",
         "address2":"",
         "city":"Berkeley",
         "state":"CA",
         "country":"US",
         "latitude":"37.8574760",
         "longitude":"-122.2420200",
         "postal_code":"94705",
         "phone_number":"5105498510x",
         "metro_name":"San Francisco Bay Area",
         "reservation_url":"http://www.opentable.com/restaurant/profile/362",
         "profile_url":"http://www.opentable.com/restaurant/profile/362",
         "is_restaurant_in_group":false,
         "ranking": 3
      },
      {
         "rid":389,
         "name":"The Park Bistro & Bar",
         "address":"3287 Mt. Diablo Blvd.",
         "address2":"",
         "city":"Lafayette",
         "state":"CA",
         "country":"US",
         "latitude":"37.8959960",
         "longitude":"-122.1010660",
         "postal_code":"94549",
         "phone_number":"9252837108x",
         "metro_name":"San Francisco Bay Area",
         "reservation_url":"http://www.opentable.com/restaurant/profile/389",
         "profile_url":"http://www.opentable.com/restaurant/profile/389",
         "is_restaurant_in_group":false,
         "ranking": 5
      },
      {
         "rid":392,
         "name":"The Grill on the Alley - San Jose",
         "address":"172 South Market St.",
         "address2":"",
         "city":"San Jose",
         "state":"CA",
         "country":"US",
         "latitude":"37.3330210",
         "longitude":"-121.8897300",
         "postal_code":"95113",
         "phone_number":"4082942244",
         "metro_name":"San Francisco Bay Area",
         "reservation_url":"http://www.opentable.com/restaurant/profile/392",
         "profile_url":"http://www.opentable.com/restaurant/profile/392",
         "is_restaurant_in_group":false,
         "ranking": 4
      },
      {
         "rid":405,
         "name":"Wildfox",
         "address":"225 Alameda Del Prado",
         "address2":"",
         "city":"Novato",
         "state":"CA",
         "country":"US",
         "latitude":"38.0513510",
         "longitude":"-122.5322380",
         "postal_code":"94949",
         "phone_number":"4158839125x",
         "metro_name":"San Francisco Bay Area",
         "reservation_url":"http://www.opentable.com/restaurant/profile/405",
         "profile_url":"http://www.opentable.com/restaurant/profile/405",
         "is_restaurant_in_group":false,
         "ranking": 5
      },
      {
         "rid":440,
         "name":"Cafe Torre",
         "address":"20343 Stevens Creek Blvd",
         "address2":"",
         "city":"Cupertino",
         "state":"CA",
         "country":"US",
         "latitude":"37.3229840",
         "longitude":"-122.0290640",
         "postal_code":"95014",
         "phone_number":"4082572383x",
         "metro_name":"San Francisco Bay Area",
         "reservation_url":"http://www.opentable.com/restaurant/profile/440",
         "profile_url":"http://www.opentable.com/restaurant/profile/440",
         "is_restaurant_in_group":false,
         "ranking": 5
      },
      {
         "rid":42760,
         "name":"Fast Food Francais",
         "address":"39 Caledonia",
         "address2":"",
         "city":"Sausalito",
         "state":"CA",
         "country":"US",
         "latitude":"37.8583560",
         "longitude":"-122.4849180",
         "postal_code":"94965",
         "phone_number":"4158879047x",
         "metro_name":"San Francisco Bay Area",
         "reservation_url":"http://www.opentable.com/restaurant/profile/42760",
         "profile_url":"http://www.opentable.com/restaurant/profile/42760",
         "is_restaurant_in_group":false,
         "ranking": 4
      },
      {
         "rid":42865,
         "name":"Oenotri",
         "address":"1425 1st Street",
         "address2":"",
         "city":"Napa",
         "state":"CA",
         "country":"US",
         "latitude":"38.2972280",
         "longitude":"-122.2889070",
         "postal_code":"94559",
         "phone_number":"7072521022x",
         "metro_name":"San Francisco Bay Area",
         "reservation_url":"http://www.opentable.com/restaurant/profile/42865",
         "profile_url":"http://www.opentable.com/restaurant/profile/42865",
         "is_restaurant_in_group":false,
         "ranking": 5
      },
      {
         "rid":43093,
         "name":"Flora - Oakland",
         "address":"1900 Telegraph Ave.",
         "address2":"",
         "city":"Oakland",
         "state":"CA",
         "country":"US",
         "latitude":"37.8082090",
         "longitude":"-122.2697020",
         "postal_code":"94608",
         "phone_number":"5102860100x",
         "metro_name":"San Francisco Bay Area",
         "reservation_url":"http://www.opentable.com/restaurant/profile/43093",
         "profile_url":"http://www.opentable.com/restaurant/profile/43093",
         "is_restaurant_in_group":false,
         "ranking": 4
      },
      {
         "rid":43249,
         "name":"Mountain House - Woodside",
         "address":"13808 Skyline Boulevard",
         "address2":"",
         "city":"Woodside",
         "state":"CA",
         "country":"US",
         "latitude":"37.4381500",
         "longitude":"-122.3229020",
         "postal_code":"94062",
         "phone_number":"6508518541x",
         "metro_name":"San Francisco Bay Area",
         "reservation_url":"http://www.opentable.com/restaurant/profile/43249",
         "profile_url":"http://www.opentable.com/restaurant/profile/43249",
         "is_restaurant_in_group":false,
         "ranking": 4
      },
      {
         "rid":44863,
         "name":"Risibisi",
         "address":"154 Petaluma Blvd. North",
         "address2":"",
         "city":"Petaluma",
         "state":"CA",
         "country":"US",
         "latitude":"38.2353000",
         "longitude":"-122.6405420",
         "postal_code":"94952",
         "phone_number":"7077667600x",
         "metro_name":"San Francisco Bay Area",
         "reservation_url":"http://www.opentable.com/restaurant/profile/44863",
         "profile_url":"http://www.opentable.com/restaurant/profile/44863",
         "is_restaurant_in_group":false,
         "ranking": 1
      },
      {
         "rid":44941,
         "name":"Clay Oven Indian Restaurant - West Portal",
         "address":"385 West Portal Avenue",
         "address2":"",
         "city":"San Francisco",
         "state":"CA",
         "country":"US",
         "latitude":"37.7367060",
         "longitude":"-122.4704030",
         "postal_code":"94127",
         "phone_number":"4157312400",
         "metro_name":"San Francisco Bay Area",
         "reservation_url":"http://www.opentable.com/restaurant/profile/44941",
         "profile_url":"http://www.opentable.com/restaurant/profile/44941",
         "is_restaurant_in_group":false,
         "ranking": 5
      },
      {
         "rid":45031,
         "name":"Tandoori Mahal - Financial District",
         "address":"941 Kearny Street",
         "address2":"",
         "city":"San Francisco",
         "state":"CA",
         "country":"US",
         "latitude":"37.7964920",
         "longitude":"-122.4052240",
         "postal_code":"94133",
         "phone_number":"4159510505",
         "metro_name":"San Francisco Bay Area",
         "reservation_url":"http://www.opentable.com/restaurant/profile/45031",
         "profile_url":"http://www.opentable.com/restaurant/profile/45031",
         "is_restaurant_in_group":false,
         "ranking": 2
      },
      {
         "rid":45052,
         "name":"Contigo",
         "address":"1320 Castro Street",
         "address2":"",
         "city":"San Francisco",
         "state":"CA",
         "country":"US",
         "latitude":"37.7509020",
         "longitude":"-122.4343270",
         "postal_code":"94114",
         "phone_number":"4152850250",
         "metro_name":"San Francisco Bay Area",
         "reservation_url":"http://www.opentable.com/restaurant/profile/45052",
         "profile_url":"http://www.opentable.com/restaurant/profile/45052",
         "is_restaurant_in_group":false,
         "ranking": 5
      },
      {
         "rid":45172,
         "name":"Attic",
         "address":"234 South B Street",
         "address2":"",
         "city":"San Mateo",
         "state":"CA",
         "country":"US",
         "latitude":"37.5659510",
         "longitude":"-122.3229140",
         "postal_code":"94401",
         "phone_number":"6503424506",
         "metro_name":"San Francisco Bay Area",
         "reservation_url":"http://www.opentable.com/restaurant/profile/45172",
         "profile_url":"http://www.opentable.com/restaurant/profile/45172",
         "is_restaurant_in_group":false,
         "ranking": 4
      },
      {
         "rid":45181,
         "name":"Spoonbar - h2hotel",
         "address":"219 Healdsburg Avenue",
         "address2":"",
         "city":"Healdsburg",
         "state":"CA",
         "country":"US",
         "latitude":"38.6090660",
         "longitude":"-122.8704940",
         "postal_code":"95448",
         "phone_number":"7074337222x",
         "metro_name":"San Francisco Bay Area",
         "reservation_url":"http://www.opentable.com/restaurant/profile/45181",
         "profile_url":"http://www.opentable.com/restaurant/profile/45181",
         "is_restaurant_in_group":false,
         "ranking": 5
      },
      {
         "rid":45502,
         "name":"Revival Bar+Kitchen",
         "address":"2102 Shattuck Avenue",
         "address2":"",
         "city":"Berkeley",
         "state":"CA",
         "country":"US",
         "latitude":"37.8710680",
         "longitude":"-122.2682800",
         "postal_code":"94704",
         "phone_number":"5105499950x",
         "metro_name":"San Francisco Bay Area",
         "reservation_url":"http://www.opentable.com/restaurant/profile/45502",
         "profile_url":"http://www.opentable.com/restaurant/profile/45502",
         "is_restaurant_in_group":false,
         "ranking": 3
      },
      {
         "rid":48718,
         "name":"Urban Curry",
         "address":"523 Broadway",
         "address2":"",
         "city":"San Francisco",
         "state":"CA",
         "country":"US",
         "latitude":"37.7977450",
         "longitude":"-122.4058640",
         "postal_code":"94133",
         "phone_number":"4156779744",
         "metro_name":"San Francisco Bay Area",
         "reservation_url":"http://www.opentable.com/restaurant/profile/48718",
         "profile_url":"http://www.opentable.com/restaurant/profile/48718",
         "is_restaurant_in_group":false,
         "ranking": 5
      },
      {
         "rid":48964,
         "name":"Zero Zero",
         "address":"826 Folsom Street",
         "address2":"",
         "city":"San Francisco",
         "state":"CA",
         "country":"US",
         "latitude":"37.7815410",
         "longitude":"-122.4019870",
         "postal_code":"94107",
         "phone_number":"4153488800",
         "metro_name":"San Francisco Bay Area",
         "reservation_url":"http://www.opentable.com/restaurant/profile/48964",
         "profile_url":"http://www.opentable.com/restaurant/profile/48964",
         "is_restaurant_in_group":false,
         "ranking": 2
      },
      {
         "rid":45625,
         "name":"Wayfare Tavern",
         "address":"558 Sacramento Street",
         "address2":"",
         "city":"San Francisco",
         "state":"CA",
         "country":"US",
         "latitude":"37.7939300",
         "longitude":"-122.4023880",
         "postal_code":"94111",
         "phone_number":"4157729060x",
         "metro_name":"San Francisco Bay Area",
         "reservation_url":"http://www.opentable.com/restaurant/profile/45625",
         "profile_url":"http://www.opentable.com/restaurant/profile/45625",
         "is_restaurant_in_group":false,
         "ranking": 4
      },
      {
         "rid":45907,
         "name":"Prospect",
         "address":"300 Spear Street",
         "address2":"",
         "city":"San Francisco",
         "state":"CA",
         "country":"US",
         "latitude":"37.7900470",
         "longitude":"-122.3909690",
         "postal_code":"94105",
         "phone_number":"415-247-7770x1",
         "metro_name":"San Francisco Bay Area",
         "reservation_url":"http://www.opentable.com/restaurant/profile/45907",
         "profile_url":"http://www.opentable.com/restaurant/profile/45907",
         "is_restaurant_in_group":false,
         "ranking": 5
      },
      {
         "rid":45916,
         "name":"Benu",
         "address":"22 Hawthorne Street",
         "address2":"",
         "city":"San Francisco",
         "state":"CA",
         "country":"US",
         "latitude":"37.7854020",
         "longitude":"-122.3990680",
         "postal_code":"94105",
         "phone_number":"4156854860x",
         "metro_name":"San Francisco Bay Area",
         "reservation_url":"http://www.opentable.com/restaurant/profile/45916",
         "profile_url":"http://www.opentable.com/restaurant/profile/45916",
         "is_restaurant_in_group":false,
         "ranking": 4
      },
      {
         "rid":46072,
         "name":"Ruchi",
         "address":"474 3rd Street",
         "address2":"",
         "city":"San Francisco",
         "state":"CA",
         "country":"US",
         "latitude":"37.7814250",
         "longitude":"-122.3963600",
         "postal_code":"94107",
         "phone_number":"4155433800x",
         "metro_name":"San Francisco Bay Area",
         "reservation_url":"http://www.opentable.com/restaurant/profile/46072",
         "profile_url":"http://www.opentable.com/restaurant/profile/46072",
         "is_restaurant_in_group":false,
         "ranking": 3
      },
      {
         "rid":46267,
         "name":"FANG",
         "address":"660 Howard Street",
         "address2":"",
         "city":"San Francisco",
         "state":"CA",
         "country":"US",
         "latitude":"37.7857800",
         "longitude":"-122.3998660",
         "postal_code":"94105",
         "phone_number":"4157778568",
         "metro_name":"San Francisco Bay Area",
         "reservation_url":"http://www.opentable.com/restaurant/profile/46267",
         "profile_url":"http://www.opentable.com/restaurant/profile/46267",
         "is_restaurant_in_group":false,
         "ranking": 1
      },
      {
         "rid":46438,
         "name":"La Strada Ristorante Italiano",
         "address":"335 University Avenue",
         "address2":"",
         "city":"Palo Alto",
         "state":"CA",
         "country":"US",
         "latitude":"37.4463580",
         "longitude":"-122.1612090",
         "postal_code":"94301",
         "phone_number":"6503248300x",
         "metro_name":"San Francisco Bay Area",
         "reservation_url":"http://www.opentable.com/restaurant/profile/46438",
         "profile_url":"http://www.opentable.com/restaurant/profile/46438",
         "is_restaurant_in_group":false,
         "ranking": 5
      },
      {
         "rid":47218,
         "name":"Riva Cucina",
         "address":"800 Heinz Avenue",
         "address2":"",
         "city":"Berkeley",
         "state":"CA",
         "country":"US",
         "latitude":"37.8530340",
         "longitude":"-122.2935180",
         "postal_code":"94710",
         "phone_number":"5108417482",
         "metro_name":"San Francisco Bay Area",
         "reservation_url":"http://www.opentable.com/restaurant/profile/47218",
         "profile_url":"http://www.opentable.com/restaurant/profile/47218",
         "is_restaurant_in_group":false,
         "ranking": 4
      },
      {
         "rid":47224,
         "name":"Commonwealth - San Francisco",
         "address":"2224 Mission Street",
         "address2":"",
         "city":"San Francisco",
         "state":"CA",
         "country":"US",
         "latitude":"37.7613190",
         "longitude":"-122.4197330",
         "postal_code":"94110",
         "phone_number":"4153551500x",
         "metro_name":"San Francisco Bay Area",
         "reservation_url":"http://www.opentable.com/restaurant/profile/47224",
         "profile_url":"http://www.opentable.com/restaurant/profile/47224",
         "is_restaurant_in_group":false,
         "ranking": 2
      },
      {
         "rid":47230,
         "name":"Rustic, Francis's Favorites",
         "address":"300 Via Archimedes",
         "address2":"",
         "city":"Geyserville",
         "state":"CA",
         "country":"US",
         "latitude":"38.6798960",
         "longitude":"-122.8880240",
         "postal_code":"95441",
         "phone_number":"7078571485x",
         "metro_name":"San Francisco Bay Area",
         "reservation_url":"http://www.opentable.com/restaurant/profile/47230",
         "profile_url":"http://www.opentable.com/restaurant/profile/47230",
         "is_restaurant_in_group":false,
         "ranking": 5
      },
      {
         "rid":44572,
         "name":"Lupa Trattoria",
         "address":"4109 24th Street",
         "address2":"",
         "city":"San Francisco",
         "state":"CA",
         "country":"US",
         "latitude":"37.7510270",
         "longitude":"-122.4345220",
         "postal_code":"94114",
         "phone_number":"4152825872",
         "metro_name":"San Francisco Bay Area",
         "reservation_url":"http://www.opentable.com/restaurant/profile/44572",
         "profile_url":"http://www.opentable.com/restaurant/profile/44572",
         "is_restaurant_in_group":false,
         "ranking": 5
      },
      {
         "rid":44584,
         "name":"Oswald",
         "address":"121 Soquel Avenue",
         "address2":"",
         "city":"Santa Cruz",
         "state":"CA",
         "country":"US",
         "latitude":"36.9731880",
         "longitude":"-122.0249380",
         "postal_code":"95060",
         "phone_number":"8314237427x",
         "metro_name":"San Francisco Bay Area",
         "reservation_url":"http://www.opentable.com/restaurant/profile/44584",
         "profile_url":"http://www.opentable.com/restaurant/profile/44584",
         "is_restaurant_in_group":false,
         "ranking": 5
      },
      {
         "rid":49405,
         "name":"Yanagi Sushi & Grill",
         "address":"6599 Dublin Blvd.",
         "address2":"",
         "city":"Dublin",
         "state":"CA",
         "country":"US",
         "latitude":"37.7042060",
         "longitude":"-121.9110650",
         "postal_code":"94568",
         "phone_number":"9255569575",
         "metro_name":"San Francisco Bay Area",
         "reservation_url":"http://www.opentable.com/restaurant/profile/49405",
         "profile_url":"http://www.opentable.com/restaurant/profile/49405",
         "is_restaurant_in_group":false,
         "ranking": 5
      },
      {
         "rid":49474,
         "name":"Baker Street Bistro",
         "address":"2953 Baker Street",
         "address2":"",
         "city":"San Francisco",
         "state":"CA",
         "country":"US",
         "latitude":"37.7982730",
         "longitude":"-122.4459220",
         "postal_code":"94123",
         "phone_number":"4159311475x",
         "metro_name":"San Francisco Bay Area",
         "reservation_url":"http://www.opentable.com/restaurant/profile/49474",
         "profile_url":"http://www.opentable.com/restaurant/profile/49474",
         "is_restaurant_in_group":false,
         "ranking": 5
      },
      {
         "rid":49540,
         "name":"Nonni's Bistro",
         "address":"425 Main Street",
         "address2":"",
         "city":"Pleasanton",
         "state":"CA",
         "country":"US",
         "latitude":"37.6599400",
         "longitude":"-121.8764610",
         "postal_code":"94566",
         "phone_number":"9256000411",
         "metro_name":"San Francisco Bay Area",
         "reservation_url":"http://www.opentable.com/restaurant/profile/49540",
         "profile_url":"http://www.opentable.com/restaurant/profile/49540",
         "is_restaurant_in_group":false,
         "ranking": 4
      },
      {
         "rid":49684,
         "name":"Ajanta Restaurant",
         "address":"1888 Solano Ave.",
         "address2":"",
         "city":"Berkeley",
         "state":"CA",
         "country":"US",
         "latitude":"37.8914460",
         "longitude":"-122.2775170",
         "postal_code":"94707",
         "phone_number":"5105264373x",
         "metro_name":"San Francisco Bay Area",
         "reservation_url":"http://www.opentable.com/restaurant/profile/49684",
         "profile_url":"http://www.opentable.com/restaurant/profile/49684",
         "is_restaurant_in_group":false,
         "ranking": 3
      },
      {
         "rid":49750,
         "name":"Saffron Indian Bistro",
         "address":"1143 San Carlos Ave.",
         "address2":"",
         "city":"San Carlos",
         "state":"CA",
         "country":"US",
         "latitude":"37.5066140",
         "longitude":"-122.2605560",
         "postal_code":"94070",
         "phone_number":"6505934269x",
         "metro_name":"San Francisco Bay Area",
         "reservation_url":"http://www.opentable.com/restaurant/profile/49750",
         "profile_url":"http://www.opentable.com/restaurant/profile/49750",
         "is_restaurant_in_group":false,
         "ranking": 3
      },
      {
         "rid":49783,
         "name":"25 Lusk",
         "address":"25 Lusk Street",
         "address2":"",
         "city":"San Francisco",
         "state":"CA",
         "country":"US",
         "latitude":"37.7785010",
         "longitude":"-122.3943110",
         "postal_code":"94107",
         "phone_number":"4154955875x",
         "metro_name":"San Francisco Bay Area",
         "reservation_url":"http://www.opentable.com/restaurant/profile/49783",
         "profile_url":"http://www.opentable.com/restaurant/profile/49783",
         "is_restaurant_in_group":false,
         "ranking": 5
      },
      {
         "rid":49789,
         "name":"Bistro Don Giovanni -- Napa",
         "address":"4110 Howard Lane",
         "address2":"",
         "city":"Napa",
         "state":"CA",
         "country":"US",
         "latitude":"38.3439640",
         "longitude":"-122.3260040",
         "postal_code":"94558",
         "phone_number":"7072243300",
         "metro_name":"San Francisco Bay Area",
         "reservation_url":"http://www.opentable.com/restaurant/profile/49789",
         "profile_url":"http://www.opentable.com/restaurant/profile/49789",
         "is_restaurant_in_group":false,
         "ranking": 5
      },
      {
         "rid":49834,
         "name":"Crouching Tiger Restaurant",
         "address":"2644 Broadway Street",
         "address2":"",
         "city":"Redwood City",
         "state":"CA",
         "country":"US",
         "latitude":"37.4862740",
         "longitude":"-122.2338720",
         "postal_code":"94063",
         "phone_number":"6502988881",
         "metro_name":"San Francisco Bay Area",
         "reservation_url":"http://www.opentable.com/restaurant/profile/49834",
         "profile_url":"http://www.opentable.com/restaurant/profile/49834",
         "is_restaurant_in_group":false,
         "ranking": 3
      },
      {
         "rid":50065,
         "name":"Rendez Vous Cafe Bistro",
         "address":"1111 Solano Avenue",
         "address2":"",
         "city":"Albany",
         "state":"CA",
         "country":"US",
         "latitude":"37.8903420",
         "longitude":"-122.2982980",
         "postal_code":"94706",
         "phone_number":"5105274111",
         "metro_name":"San Francisco Bay Area",
         "reservation_url":"http://www.opentable.com/restaurant/profile/50065",
         "profile_url":"http://www.opentable.com/restaurant/profile/50065",
         "is_restaurant_in_group":false,
         "ranking": 5
      },
      {
         "rid":47611,
         "name":"71 Saint Peter Restaurant",
         "address":"71 N. San Pedro Street",
         "address2":"",
         "city":"San Jose",
         "state":"CA",
         "country":"US",
         "latitude":"37.3363640",
         "longitude":"-121.8939490",
         "postal_code":"95110",
         "phone_number":"4089718523x",
         "metro_name":"San Francisco Bay Area",
         "reservation_url":"http://www.opentable.com/restaurant/profile/47611",
         "profile_url":"http://www.opentable.com/restaurant/profile/47611",
         "is_restaurant_in_group":false,
         "ranking": 4
      },
      {
         "rid":47614,
         "name":"Bistro 29",
         "address":"620 5th Street",
         "address2":"",
         "city":"Santa Rosa",
         "state":"CA",
         "country":"US",
         "latitude":"38.4412560",
         "longitude":"-122.7140950",
         "postal_code":"95401",
         "phone_number":"7075462929",
         "metro_name":"San Francisco Bay Area",
         "reservation_url":"http://www.opentable.com/restaurant/profile/47614",
         "profile_url":"http://www.opentable.com/restaurant/profile/47614",
         "is_restaurant_in_group":false,
         "ranking": 2
      },
      {
         "rid":47617,
         "name":"Bar Agricole",
         "address":"355 11th Street",
         "address2":"",
         "city":"San Francisco",
         "state":"CA",
         "country":"US",
         "latitude":"37.7713930",
         "longitude":"-122.4129720",
         "postal_code":"94103",
         "phone_number":"4153559400x",
         "metro_name":"San Francisco Bay Area",
         "reservation_url":"http://www.opentable.com/restaurant/profile/47617",
         "profile_url":"http://www.opentable.com/restaurant/profile/47617",
         "is_restaurant_in_group":false,
         "ranking": 4
      },
      {
         "rid":47881,
         "name":"Limon Rotisserie - Valencia",
         "address":"524 Valencia Street",
         "address2":"",
         "city":"San Francisco",
         "state":"CA",
         "country":"US",
         "latitude":"37.7644150",
         "longitude":"-122.4221360",
         "postal_code":"94110",
         "phone_number":"4152520918x",
         "metro_name":"San Francisco Bay Area",
         "reservation_url":"http://www.opentable.com/restaurant/profile/47881",
         "profile_url":"http://www.opentable.com/restaurant/profile/47881",
         "is_restaurant_in_group":false,
         "ranking": 5
      },
      {
         "rid":47902,
         "name":"Firefly Restaurant",
         "address":"4288 24th Street",
         "address2":"",
         "city":"San Francisco",
         "state":"CA",
         "country":"US",
         "latitude":"37.7510280",
         "longitude":"-122.4383350",
         "postal_code":"94114",
         "phone_number":"4158217652x",
         "metro_name":"San Francisco Bay Area",
         "reservation_url":"http://www.opentable.com/restaurant/profile/47902",
         "profile_url":"http://www.opentable.com/restaurant/profile/47902",
         "is_restaurant_in_group":false,
         "ranking": 5
      },
      {
         "rid":48010,
         "name":"Hayes Street Grill",
         "address":"320 Hayes Street",
         "address2":"",
         "city":"San Francisco",
         "state":"CA",
         "country":"US",
         "latitude":"37.7772960",
         "longitude":"-122.4218010",
         "postal_code":"94102",
         "phone_number":"4158635545x",
         "metro_name":"San Francisco Bay Area",
         "reservation_url":"http://www.opentable.com/restaurant/profile/48010",
         "profile_url":"http://www.opentable.com/restaurant/profile/48010",
         "is_restaurant_in_group":false,
         "ranking": 5
      },
      {
         "rid":43348,
         "name":"Chalet Basque",
         "address":"405 N San Pedro Rd",
         "address2":"",
         "city":"San Rafael",
         "state":"CA",
         "country":"US",
         "latitude":"38.0093990",
         "longitude":"-122.5198650",
         "postal_code":"94903",
         "phone_number":"4154791070",
         "metro_name":"San Francisco Bay Area",
         "reservation_url":"http://www.opentable.com/restaurant/profile/43348",
         "profile_url":"http://www.opentable.com/restaurant/profile/43348",
         "is_restaurant_in_group":false,
         "ranking": 5
      },
      {
         "rid":43684,
         "name":"Perry's - Design Center",
         "address":"101 Henry Adams Street",
         "address2":"",
         "city":"San Francisco",
         "state":"CA",
         "country":"US",
         "latitude":"37.7681520",
         "longitude":"-122.4034560",
         "postal_code":"94103",
         "phone_number":"(415)552-5697x",
         "metro_name":"San Francisco Bay Area",
         "reservation_url":"http://www.opentable.com/restaurant/profile/43684",
         "profile_url":"http://www.opentable.com/restaurant/profile/43684",
         "is_restaurant_in_group":false,
         "ranking": 5
      },
      {
         "rid":43792,
         "name":"Morimoto - Napa",
         "address":"610 Main Street",
         "address2":"",
         "city":"Napa",
         "state":"CA",
         "country":"US",
         "latitude":"38.2964930",
         "longitude":"-122.2832550",
         "postal_code":"94559",
         "phone_number":"7072521600x",
         "metro_name":"San Francisco Bay Area",
         "reservation_url":"http://www.opentable.com/restaurant/profile/43792",
         "profile_url":"http://www.opentable.com/restaurant/profile/43792",
         "is_restaurant_in_group":false,
         "ranking": 3
      },
      {
         "rid":43885,
         "name":"Zazie",
         "address":"941 Cole Street",
         "address2":"",
         "city":"San Francisco",
         "state":"CA",
         "country":"US",
         "latitude":"37.7653170",
         "longitude":"-122.4498840",
         "postal_code":"94117",
         "phone_number":"4155645332x",
         "metro_name":"San Francisco Bay Area",
         "reservation_url":"http://www.opentable.com/restaurant/profile/43885",
         "profile_url":"http://www.opentable.com/restaurant/profile/43885",
         "is_restaurant_in_group":false,
         "ranking": 5
      },
      {
         "rid":44095,
         "name":"Jason's Restaurant",
         "address":"300 Drakes Landing Rd",
         "address2":"",
         "city":"Greenbrae",
         "state":"CA",
         "country":"US",
         "latitude":"37.9444380",
         "longitude":"-122.5191070",
         "postal_code":"94904",
         "phone_number":"4159250808x",
         "metro_name":"San Francisco Bay Area",
         "reservation_url":"http://www.opentable.com/restaurant/profile/44095",
         "profile_url":"http://www.opentable.com/restaurant/profile/44095",
         "is_restaurant_in_group":false,
         "ranking": 5
      }
   ]
}
